navId,navType,sourceRowId,name,city,stateCode,countryCode,regionCode,lat,lon,freq,chan,navStatus,nasUseFlag,publicUseFlag,highAltArtccId,lowAltArtccId,legacyNavIdTypeKey,currentPointKey
AA,NDB,2,KENIE,FARGO,ND,US,AGL,47.00905216,-96.8151835,365,,OPERATIONAL IFR,Y,Y,ZMP,ZMP,POINT:NAVAID:AA:NDB,POINT:NAVAID:AA:NDB:US:ND:FARGO
AA,NDB,3,CEDAR,THOMSON,GA,US,ASO,33.53328333,-82.61436944,341,,OPERATIONAL RESTRICTED,Y,Y,ZTL,ZTL,POINT:NAVAID:AA:NDB,POINT:NAVAID:AA:NDB:US:GA:THOMSON
AAA,NDB,4,ABRAHAM,LINCOLN,IL,US,AGL,40.16011666,-89.33801561,329,,OPERATIONAL IFR,Y,Y,ZAU,ZAU,POINT:NAVAID:AAA:NDB,POINT:NAVAID:AAA:NDB:US:IL:LINCOLN
AAT,DME,5,ALTURAS,ALTURAS,CA,US,AWP,41.48335388,-120.56154166,116.65,113Y,OPERATIONAL RESTRICTED,Y,Y,ZSE,ZSE,POINT:NAVAID:AAT:DME,POINT:NAVAID:AAT:DME:US:CA:ALTURAS
AB,NDB,6,RENEY,ABERDEEN,SD,US,AGL,45.38610597,-98.32851091,203,,OPERATIONAL IFR,Y,Y,,,POINT:NAVAID:AB:NDB,POINT:NAVAID:AB:NDB:US:SD:ABERDEEN
AB,NDB,7,TOMHI,ABILENE,TX,US,ASW,32.29886325,-99.67422802,353,,OPERATIONAL IFR,Y,Y,,,POINT:NAVAID:AB:NDB,POINT:NAVAID:AB:NDB:US:TX:ABILENE
ABG,NDB,8,AMBASSADOR,BIG SANDY,TX,US,ASW,32.58549538,-95.11311944,404,,OPERATIONAL VFR ONLY,Y,Y,ZFW,ZFW,POINT:NAVAID:ABG:NDB,POINT:NAVAID:ABG:NDB:US:TX:BIG_SANDY
ABI,VORTAC,9,ABILENE,ABILENE,TX,US,ASW,32.48133058,-99.86345369,113.7,84X,OPERATIONAL RESTRICTED,Y,Y,ZFW,ZFW,POINT:NAVAID:ABI:VORTAC,POINT:NAVAID:ABI:VORTAC:US:TX:ABILENE
ABQ,VORTAC,10,ALBUQUERQUE,ALBUQUERQUE,NM,US,ASW,35.04379558,-106.81631191,113.2,79X,OPERATIONAL RESTRICTED,Y,Y,ZAB,ZAB,POINT:NAVAID:ABQ:VORTAC,POINT:NAVAID:ABQ:VORTAC:US:NM:ALBUQUERQUE
ABQ,VOT,11,ALBUQUERQUE,ALBUQUERQUE,NM,US,ASW,35.03819,-106.60841805,111,,OPERATIONAL IFR,N,Y,,,POINT:NAVAID:ABQ:VOT,POINT:NAVAID:ABQ:VOT:US:NM:ALBUQUERQUE
ABR,VOR/DME,12,ABERDEEN,ABERDEEN,SD,US,AGL,45.41735666,-98.36871961,113,77X,OPERATIONAL RESTRICTED,Y,Y,ZMP,ZMP,POINT:NAVAID:ABR:VOR/DME,POINT:NAVAID:ABR:VOR/DME:US:SD:ABERDEEN
ACH,VORTAC,13,ANTON CHICO,ANTON CHICO,NM,US,ASW,35.11170611,-105.03992888,117.8,125X,OPERATIONAL IFR,Y,Y,ZAB,ZAB,POINT:NAVAID:ACH:VORTAC,POINT:NAVAID:ACH:VORTAC:US:NM:ANTON_CHICO
ACK,VOR/DME,14,NANTUCKET,NANTUCKET,MA,US,ANE,41.28187505,-70.02670386,116.2,109X,OPERATIONAL RESTRICTED,Y,Y,ZBW,ZBW,POINT:NAVAID:ACK:VOR/DME,POINT:NAVAID:ACK:VOR/DME:US:MA:NANTUCKET
ACO,VOR/DME,15,AKRON,AKRON,OH,US,AGL,41.10790311,-81.20151891,114.4,91X,OPERATIONAL IFR,Y,Y,ZOB,ZOB,POINT:NAVAID:ACO:VOR/DME,POINT:NAVAID:ACO:VOR/DME:US:OH:AKRON
ACT,VORTAC,16,WACO,WACO,TX,US,ASW,31.66223102,-97.26901383,115.3,100X,OPERATIONAL RESTRICTED,Y,Y,ZFW,ZFW,POINT:NAVAID:ACT:VORTAC,POINT:NAVAID:ACT:VORTAC:US:TX:WACO
ACV,VOR/DME,17,ARCATA,ARCATA/EUREKA,CA,US,AWP,40.98144275,-124.108319,115.05,97Y,OPERATIONAL RESTRICTED,Y,Y,ZSE,ZSE,POINT:NAVAID:ACV:VOR/DME,POINT:NAVAID:ACV:VOR/DME:US:CA:ARCATA/EUREKA
ACY,VORTAC,18,ATLANTIC CITY,ATLANTIC CITY,NJ,US,AEA,39.4558748,-74.57631472,117.15,118Y,OPERATIONAL RESTRICTED,Y,Y,ZDC,ZDC,POINT:NAVAID:ACY:VORTAC,POINT:NAVAID:ACY:VORTAC:US:NJ:ATLANTIC_CITY
ADG,NDB,19,ADRIAN,ADRIAN,MI,US,AGL,41.86998583,-84.07748077,278,,OPERATIONAL IFR,Y,Y,ZOB,ZOB,POINT:NAVAID:ADG:NDB,POINT:NAVAID:ADG:NDB:US:MI:ADRIAN
ADK,NDB/DME,20,MOUNT MOFFETT,ADAK ISLAND,AK,US,AAL,51.87187647,-176.6759875,530,87X,OPERATIONAL IFR,Y,Y,ZAN,ZAN,POINT:NAVAID:ADK:NDB/DME,POINT:NAVAID:ADK:NDB/DME:US:AK:ADAK_ISLAND
ADM,VORTAC,21,ARDMORE,ARDMORE,OK,US,ASW,34.21158619,-97.16822802,116.7,114X,OPERATIONAL RESTRICTED,Y,Y,ZFW,ZFW,POINT:NAVAID:ADM:VORTAC,POINT:NAVAID:ADM:VORTAC:US:OK:ARDMORE
ADW,VORTAC,22,ANDREWS,CAMP SPRINGS,MD,US,AEA,38.80721944,-76.86625555,113.1,78X,OPERATIONAL RESTRICTED,Y,Y,ZDC,ZDC,POINT:NAVAID:ADW:VORTAC,POINT:NAVAID:ADW:VORTAC:US:MD:CAMP_SPRINGS
AE,NDB,23,DUDLE,ALBUQUERQUE,NM,US,ASW,35.21740108,-106.71280038,351,,OPERATIONAL IFR,Y,Y,,,POINT:NAVAID:AE:NDB,POINT:NAVAID:AE:NDB:US:NM:ALBUQUERQUE
AEL,VOR/DME,24,ALBERT LEA,ALBERT LEA,MN,US,AGL,43.681735,-93.37075511,109.8,35X,OPERATIONAL IFR,Y,Y,ZMP,ZMP,POINT:NAVAID:AEL:VOR/DME,POINT:NAVAID:AEL:VOR/DME:US:MN:ALBERT_LEA
AEX,VORTAC,25,ALEXANDRIA,ALEXANDRIA,LA,US,ASW,31.25673163,-92.50097241,116.1,108X,OPERATIONAL RESTRICTED,Y,Y,ZHU,ZHU,POINT:NAVAID:AEX:VORTAC,POINT:NAVAID:AEX:VORTAC:US:LA:ALEXANDRIA
AG,NDB,26,BUSHE,AUGUSTA,GA,US,ASO,33.28688547,-81.94685313,233,,OPERATIONAL IFR,Y,Y,,,POINT:NAVAID:AG:NDB,POINT:NAVAID:AG:NDB:US:GA:AUGUSTA
AGC,VOR/DME,27,ALLEGHENY,PITTSBURGH,PA,US,AEA,40.27864386,-80.04085469,110,37X,OPERATIONAL RESTRICTED,Y,Y,ZOB,ZOB,POINT:NAVAID:AGC:VOR/DME,POINT:NAVAID:AGC:VOR/DME:US:PA:PITTSBURGH
AGJ,VORTAC,28,GOOCH SPRINGS,LAMPASAS,TX,US,ASW,31.1855045,-98.14185786,112.5,72X,OPERATIONAL IFR,Y,Y,ZHU,ZHU,POINT:NAVAID:AGJ:VORTAC,POINT:NAVAID:AGJ:VORTAC:US:TX:LAMPASAS
AGZ,NDB,29,WAGNER,WAGNER,SD,US,AGL,43.06339127,-98.29316833,392,,OPERATIONAL VFR ONLY,N,Y,ZMP,ZMP,POINT:NAVAID:AGZ:NDB,POINT:NAVAID:AGZ:NDB:US:SD:WAGNER
AHC,VOR/DME,30,AMEDEE,HERLONG,CA,US,AWP,40.26786288,-120.15196541,109,27X,OPERATIONAL RESTRICTED,N,Y,ZOA,ZOA,POINT:NAVAID:AHC:VOR/DME,POINT:NAVAID:AHC:VOR/DME:US:CA:HERLONG
AHN,VOR/DME,31,ATHENS,ATHENS,GA,US,ASO,33.94759358,-83.32475877,116.95,116Y,OPERATIONAL RESTRICTED,Y,Y,ZTL,ZTL,POINT:NAVAID:AHN:VOR/DME,POINT:NAVAID:AHN:VOR/DME:US:GA:ATHENS
AHQ,NDB,32,WAHOO,WAHOO,NE,US,ACE,41.23900138,-96.59866061,400,,OPERATIONAL IFR,Y,Y,ZMP,ZMP,POINT:NAVAID:AHQ:NDB,POINT:NAVAID:AHQ:NDB:US:NE:WAHOO
AI,NDB,33,VIDEO,ANDERSON,IN,US,AGL,40.0695273,-85.51068694,394,,OPERATIONAL IFR,Y,Y,ZID,ZID,POINT:NAVAID:AI:NDB,POINT:NAVAID:AI:NDB:US:IN:ANDERSON
AI,NDB,34,ADDMO,ARDMORE,OK,US,ASW,34.23234622,-96.93310883,400,,OPERATIONAL IFR,Y,Y,,,POINT:NAVAID:AI:NDB,POINT:NAVAID:AI:NDB:US:OK:ARDMORE
AIA,VOR/DME,35,ALLIANCE,ALLIANCE,NE,US,ACE,42.05563094,-102.80444361,111.8,55X,OPERATIONAL RESTRICTED,Y,Y,ZDV,ZDV,POINT:NAVAID:AIA:VOR/DME,POINT:NAVAID:AIA:VOR/DME:US:NE:ALLIANCE
AIK,NDB,36,AIKEN,AIKEN,SC,US,ASO,33.6518005,-81.67697219,347,,OPERATIONAL RESTRICTED,Y,Y,ZJX,ZTL,POINT:NAVAID:AIK:NDB,POINT:NAVAID:AIK:NDB:US:SC:AIKEN
AIR,VOR/DME,37,BELLAIRE,BELLAIRE,OH,US,AGL,40.01702408,-80.81722894,117.1,118X,OPERATIONAL IFR,Y,Y,ZOB,ZOB,POINT:NAVAID:AIR:VOR/DME,POINT:NAVAID:AIR:VOR/DME:US:OH:BELLAIRE
AJA,NDB,38,MT MACAJNA,MT MACAJNA,GU,US,AWP,13.45350525,144.73693305,385,,OPERATIONAL IFR,Y,Y,,ZHN,POINT:NAVAID:AJA:NDB,POINT:NAVAID:AJA:NDB:US:GU:MT_MACAJNA
AK,NDB,39,AKRON,AKRON,OH,US,AGL,41.06973336,-81.38736763,362,,OPERATIONAL IFR,Y,Y,ZOB,ZOB,POINT:NAVAID:AK:NDB,POINT:NAVAID:AK:NDB:US:OH:AKRON
AKN,VORTAC,40,KING SALMON,KING SALMON,AK,US,AAL,58.72471258,-156.75234675,112.8,75X,OPERATIONAL IFR,Y,Y,ZAN,ZAN,POINT:NAVAID:AKN:VORTAC,POINT:NAVAID:AKN:VORTAC:US:AK:KING_SALMON
AKO,VOR/DME,41,AKRON,AKRON,CO,US,ANM,40.15555508,-103.17971469,114.4,91X,OPERATIONAL RESTRICTED,Y,Y,ZDV,ZDV,POINT:NAVAID:AKO:VOR/DME,POINT:NAVAID:AKO:VOR/DME:US:CO:AKRON
AKQ,NDB,42,WAKEFIELD,WAKEFIELD,VA,US,AEA,36.98281877,-77.00097261,274,,OPERATIONAL RESTRICTED,Y,Y,ZDC,ZDC,POINT:NAVAID:AKQ:NDB,POINT:NAVAID:AKQ:NDB:US:VA:WAKEFIELD
AKW,DME,43,KLAWOCK,KLAWOCK,AK,US,AAL,55.56862102,-133.08139586,115.8,105X,OPERATIONAL IFR,Y,Y,ZAN,ZAN,POINT:NAVAID:AKW:DME,POINT:NAVAID:AKW:DME:US:AK:KLAWOCK
AL,NDB,44,TRINA,WALLA WALLA,WA,US,ANM,46.17556583,-118.19635925,353,,OPERATIONAL IFR,Y,Y,,,POINT:NAVAID:AL:NDB,POINT:NAVAID:AL:NDB:US:WA:WALLA_WALLA
ALB,VORTAC,45,ALBANY,ALBANY,NY,US,AEA,42.74728047,-73.80318397,115.3,100X,OPERATIONAL RESTRICTED,Y,Y,ZBW,ZBW,POINT:NAVAID:ALB:VORTAC,POINT:NAVAID:ALB:VORTAC:US:NY:ALBANY
ALB,VOT,46,ALBANY,ALBANY,NY,US,AEA,42.74230002,-73.82206588,108.2,,OPERATIONAL RESTRICTED,N,Y,,,POINT:NAVAID:ALB:VOT,POINT:NAVAID:ALB:VOT:US:NY:ALBANY
ALD,VOR,47,ALLENDALE,ALLENDALE,SC,US,ASO,33.01249422,-81.29223222,116.7,,OPERATIONAL RESTRICTED,Y,Y,ZJX,ZJX,POINT:NAVAID:ALD:VOR,POINT:NAVAID:ALD:VOR:US:SC:ALLENDALE
ALI,VOR,48,ALICE,ALICE,TX,US,ASW,27.7397995,-98.02134288,114.5,,OPERATIONAL RESTRICTED,Y,Y,ZHU,ZHU,POINT:NAVAID:ALI:VOR,POINT:NAVAID:ALI:VOR:US:TX:ALICE
ALJ,NDB,49,ORCA BAY,HINCHINBROOK,AK,US,AAL,60.47982222,-146.58743055,233,,OPERATIONAL RESTRICTED,Y,Y,ZAN,ZAN,POINT:NAVAID:ALJ:NDB,POINT:NAVAID:ALJ:NDB:US:AK:HINCHINBROOK
ALO,VOR/DME,50,WATERLOO,WATERLOO,IA,US,ACE,42.55649655,-92.39892391,112.2,59X,OPERATIONAL RESTRICTED,Y,Y,ZAU,ZAU,POINT:NAVAID:ALO:VOR/DME,POINT:NAVAID:ALO:VOR/DME:US:IA:WATERLOO
ALP,NDB,51,ALPINE,ELMIRA,NY,US,AEA,42.23870361,-76.76397125,245,,OPERATIONAL IFR,Y,Y,ZNY,ZNY,POINT:NAVAID:ALP:NDB,POINT:NAVAID:ALP:NDB:US:NY:ELMIRA
ALS,VORTAC,52,ALAMOSA,ALAMOSA,CO,US,ANM,37.34915894,-105.81553269,113.9,86X,OPERATIONAL RESTRICTED,Y,Y,ZDV,ZDV,POINT:NAVAID:ALS:VORTAC,POINT:NAVAID:ALS:VORTAC:US:CO:ALAMOSA
ALW,VOR/DME,53,WALLA WALLA,WALLA WALLA,WA,US,ANM,46.08697675,-118.29253527,116.4,111X,OPERATIONAL RESTRICTED,Y,Y,ZSE,ZSE,POINT:NAVAID:ALW:VOR/DME,POINT:NAVAID:ALW:VOR/DME:US:WA:WALLA_WALLA
AM,NDB,54,PANDE,AMARILLO,TX,US,ASW,35.14646494,-101.80554686,251,,OPERATIONAL IFR,Y,Y,ZAB,ZAB,POINT:NAVAID:AM:NDB,POINT:NAVAID:AM:NDB:US:TX:AMARILLO
AMG,TACAN,55,ALMA,ALMA,GA,US,ASO,31.536555,-82.5080888,115.1,98X,OPERATIONAL RESTRICTED,Y,Y,ZJX,ZJX,POINT:NAVAID:AMG:TACAN,POINT:NAVAID:AMG:TACAN:US:GA:ALMA
AML,VOR/DME,56,ARMEL,HERNDON,VA,US,AEA,38.93459247,-77.46670175,113.5,82X,OPERATIONAL RESTRICTED,Y,Y,ZDC,ZDC,POINT:NAVAID:AML:VOR/DME,POINT:NAVAID:AML:VOR/DME:US:VA:HERNDON
AN,NDB,57,BOGGA,ANNISTON,AL,US,ASO,33.53433844,-85.93127041,211,,OPERATIONAL IFR,Y,Y,,,POINT:NAVAID:AN:NDB,POINT:NAVAID:AN:NDB:US:AL:ANNISTON
ANC,VOT,58,ANCHORAGE,ANCHORAGE,AK,US,AAL,61.16666855,-149.99453897,108.4,,OPERATIONAL IFR,Y,Y,,,POINT:NAVAID:ANC:VOT,POINT:NAVAID:ANC:VOT:US:AK:ANCHORAGE
ANI,NDB,59,ANIAK,ANIAK,AK,US,AAL,61.59015666,-159.59789272,359,,OPERATIONAL IFR,Y,Y,ZAN,ZAN,POINT:NAVAID:ANI:NDB,POINT:NAVAID:ANI:NDB:US:AK:ANIAK
ANN,VOR/DME,60,ANNETTE ISLAND,ANNETTE,AK,US,AAL,55.06040861,-131.57839944,117.1,118X,OPERATIONAL RESTRICTED,Y,Y,ZAN,ZAN,POINT:NAVAID:ANN:VOR/DME,POINT:NAVAID:ANN:VOR/DME:US:AK:ANNETTE
ANU,VOR/DME,61,V. C. BIRD,ST JOHNS,,AG,,17.12588055,-61.80016666,114.5,92X,OPERATIONAL RESTRICTED,Y,Y,,,POINT:NAVAID:ANU:VOR/DME,POINT:NAVAID:ANU:VOR/DME:AG::ST_JOHNS
ANW,VOR/DME,62,AINSWORTH,AINSWORTH,NE,US,ACE,42.56911388,-99.98966111,112.7,74X,OPERATIONAL RESTRICTED,Y,Y,ZDV,ZDV,POINT:NAVAID:ANW:VOR/DME,POINT:NAVAID:ANW:VOR/DME:US:NE:AINSWORTH
ANX,VORTAC,63,NAPOLEON,NAPOLEON,MO,US,ACE,39.09542388,-94.12883472,115.15,98Y,OPERATIONAL RESTRICTED,Y,Y,ZKC,ZKC,POINT:NAVAID:ANX:VORTAC,POINT:NAVAID:ANX:VORTAC:US:MO:NAPOLEON
ANY,TACAN,64,ANTHONY,ANTHONY,KS,US,ACE,37.15898202,-98.17077363,112.9,76X,OPERATIONAL RESTRICTED,Y,Y,ZKC,ZKC,POINT:NAVAID:ANY:TACAN,POINT:NAVAID:ANY:TACAN:US:KS:ANTHONY
AP,NDB,65,FELPS,ALPENA,MI,US,AGL,44.96079108,-83.55993533,206,,OPERATIONAL IFR,Y,Y,,,POINT:NAVAID:AP:NDB,POINT:NAVAID:AP:NDB:US:MI:ALPENA
APA,VOT,66,CENTENNIAL,DENVER,CO,US,ANM,39.57514111,-104.84517533,108.2,,OPERATIONAL IFR,Y,Y,,,POINT:NAVAID:APA:VOT,POINT:NAVAID:APA:VOT:US:CO:DENVER
APE,VORTAC,67,APPLETON,APPLETON,OH,US,AGL,40.15106272,-82.58830136,116.7,114X,OPERATIONAL RESTRICTED,Y,Y,ZID,ZID,POINT:NAVAID:APE:VORTAC,POINT:NAVAID:APE:VORTAC:US:OH:APPLETON
APN,VORTAC,68,ALPENA,ALPENA,MI,US,AGL,45.08277863,-83.5570035,116.5,112X,OPERATIONAL RESTRICTED,Y,Y,ZMP,ZMP,POINT:NAVAID:APN:VORTAC,POINT:NAVAID:APN:VORTAC:US:MI:ALPENA
AQ,NDB,69,KOOKY,APPLETON,WI,US,AGL,44.21594777,-88.39893902,407,,OPERATIONAL IFR,Y,Y,ZMP,ZMP,POINT:NAVAID:AQ:NDB,POINT:NAVAID:AQ:NDB:US:WI:APPLETON
AQE,NDB,70,ALWOOD,GREENVILLE,NC,US,ASO,35.70689011,-77.37187452,230,,OPERATIONAL IFR,Y,Y,ZDC,ZDC,POINT:NAVAID:AQE:NDB,POINT:NAVAID:AQE:NDB:US:NC:GREENVILLE
ARD,VOR/DME,71,YARDLEY,YARDLEY,PA,US,AEA,40.25334247,-74.90761238,108.2,19X,OPERATIONAL RESTRICTED,Y,Y,ZDC,ZDC,POINT:NAVAID:ARD:VOR/DME,POINT:NAVAID:ARD:VOR/DME:US:PA:YARDLEY
ARG,VORTAC,72,WALNUT RIDGE,WALNUT RIDGE,AR,US,ASW,36.11001991,-90.9536933,114.5,92X,OPERATIONAL RESTRICTED,Y,Y,ZME,ZME,POINT:NAVAID:ARG:VORTAC,POINT:NAVAID:ARG:VORTAC:US:AR:WALNUT_RIDGE
ARH,TACAN,73,FORT HUACHUCA,FORT HUACHUCA,AZ,US,AWP,31.58558136,-110.33898427,111.6,53X,OPERATIONAL RESTRICTED,Y,Y,ZAB,ZAB,POINT:NAVAID:ARH:TACAN,POINT:NAVAID:ARH:TACAN:US:AZ:FORT_HUACHUCA
ART,VORTAC,74,WATERTOWN,WATERTOWN,NY,US,AEA,43.95213166,-76.06462686,109.8,35X,OPERATIONAL RESTRICTED,Y,Y,ZBW,ZBW,POINT:NAVAID:ART:VORTAC,POINT:NAVAID:ART:VORTAC:US:NY:WATERTOWN
ASP,DME,75,AU SABLE,OSCODA,MI,US,AGL,44.44912813,-83.39428336,116.1,108X,OPERATIONAL RESTRICTED,Y,Y,ZMP,ZMP,POINT:NAVAID:ASP:DME,POINT:NAVAID:ASP:DME:US:MI:OSCODA
AST,FAN_MARKER,76,FORT STEVENS,ASTORIA,OR,US,ANM,46.20843611,-123.96542555,,,OPERATIONAL IFR,Y,Y,ZSE,ZSE,POINT:NAVAID:AST:FAN_MARKER,POINT:NAVAID:AST:FAN_MARKER:US:OR:ASTORIA
AST,VOR/DME,77,ASTORIA,ASTORIA,OR,US,ANM,46.16169902,-123.88037527,114,87X,OPERATIONAL RESTRICTED,Y,Y,ZSE,ZSE,POINT:NAVAID:AST:VOR/DME,POINT:NAVAID:AST:VOR/DME:US:OR:ASTORIA
AT,NDB,78,BRUNY,DAYTON,OH,US,AGL,39.84693708,-84.33492308,315,,OPERATIONAL IFR,Y,Y,ZID,ZID,POINT:NAVAID:AT:NDB,POINT:NAVAID:AT:NDB:US:OH:DAYTON
ATA,NDB,79,ATLANTA,ATLANTA,TX,US,ASW,33.10420219,-94.19006172,347,,OPERATIONAL IFR,Y,Y,ZFW,ZFW,POINT:NAVAID:ATA:NDB,POINT:NAVAID:ATA:NDB:US:TX:ATLANTA
ATR,VOR/DME,80,WATERLOO,WATERLOO,DE,US,AEA,38.80981022,-75.21132236,112.6,73X,OPERATIONAL RESTRICTED,Y,Y,ZDC,ZDC,POINT:NAVAID:ATR:VOR/DME,POINT:NAVAID:ATR:VOR/DME:US:DE:WATERLOO
ATY,TACAN,81,WATERTOWN,WATERTOWN,SD,US,AGL,44.97968638,-97.14172236,116.6,113X,OPERATIONAL IFR,Y,Y,ZMP,ZMP,POINT:NAVAID:ATY:TACAN,POINT:NAVAID:ATY:TACAN:US:SD:WATERTOWN
AU,NDB,82,DUNNS,AUGUSTA,ME,US,ANE,44.41091938,-69.86066622,366,,OPERATIONAL IFR,Y,Y,,,POINT:NAVAID:AU:NDB,POINT:NAVAID:AU:NDB:US:ME:AUGUSTA
AUG,VOR/DME,83,AUGUSTA,AUGUSTA,ME,US,ANE,44.32002036,-69.7965643,114.95,96Y,OPERATIONAL RESTRICTED,Y,Y,ZBW,ZBW,POINT:NAVAID:AUG:VOR/DME,POINT:NAVAID:AUG:VOR/DME:US:ME:AUGUSTA
AUR,NDB,84,SULPHUR,SULPHUR,LA,US,ASW,30.19852061,-93.4206403,278,,OPERATIONAL IFR,Y,Y,ZHU,ZHU,POINT:NAVAID:AUR:NDB,POINT:NAVAID:AUR:NDB:US:LA:SULPHUR
AVE,VOR/DME,85,AVENAL,AVENAL,CA,US,AWP,35.64697555,-119.97860555,117.1,118X,OPERATIONAL RESTRICTED,Y,Y,ZLA,ZLA,POINT:NAVAID:AVE:VOR/DME,POINT:NAVAID:AVE:VOR/DME:US:CA:AVENAL
AW,NDB,86,WATON,ARLINGTON,WA,US,ANM,48.07611997,-122.15391163,382,,OPERATIONAL IFR,Y,Y,,,POINT:NAVAID:AW:NDB,POINT:NAVAID:AW:NDB:US:WA:ARLINGTON
AWK,VORTAC,87,WAKE ISLAND,WAKE ISLAND,QW,US,AWP,19.28658611,166.62731944,113.5,82X,OPERATIONAL IFR,Y,Y,,ZHN,POINT:NAVAID:AWK:VORTAC,POINT:NAVAID:AWK:VORTAC:US:QW:WAKE_ISLAND
AXC,VORTAC,88,ADDERS,DECATUR,IL,US,AGL,39.73752147,-88.8564315,117.2,119X,OPERATIONAL IFR,Y,Y,ZKC,ZKC,POINT:NAVAID:AXC:VORTAC,POINT:NAVAID:AXC:VORTAC:US:IL:DECATUR
AXN,VOR/DME,89,ALEXANDRIA,ALEXANDRIA,MN,US,AGL,45.95838825,-95.23263483,115.95,106Y,OPERATIONAL RESTRICTED,Y,Y,ZMP,ZMP,POINT:NAVAID:AXN:VOR/DME,POINT:NAVAID:AXN:VOR/DME:US:MN:ALEXANDRIA
AY,NDB,90,WIKET,WAYCROSS,GA,US,ASO,31.32580663,-82.3977785,219,,OPERATIONAL IFR,Y,Y,,,POINT:NAVAID:AY:NDB,POINT:NAVAID:AY:NDB:US:GA:WAYCROSS
AYS,VORTAC,91,WAYCROSS,WAYCROSS,GA,US,ASO,31.26942527,-82.55644555,112.4,71X,OPERATIONAL RESTRICTED,Y,Y,ZJX,ZJX,POINT:NAVAID:AYS:VORTAC,POINT:NAVAID:AYS:VORTAC:US:GA:WAYCROSS
AZ,NDB,92,AUSTN,KALAMAZOO,MI,US,AGL,42.13116327,-85.52974736,371,,OPERATIONAL IFR,Y,Y,ZAU,ZAU,POINT:NAVAID:AZ:NDB,POINT:NAVAID:AZ:NDB:US:MI:KALAMAZOO
AZN,NDB,93,AMAZON,ST JOSEPH,MO,US,ACE,39.88381844,-94.90815188,233,,OPERATIONAL IFR,Y,Y,ZKC,ZKC,POINT:NAVAID:AZN:NDB,POINT:NAVAID:AZN:NDB:US:MO:ST_JOSEPH
AZO,DME,94,KALAMAZOO,KALAMAZOO,MI,US,AGL,42.23698591,-85.55315175,109,27X,OPERATIONAL RESTRICTED,Y,Y,ZAU,ZAU,POINT:NAVAID:AZO:DME,POINT:NAVAID:AZO:DME:US:MI:KALAMAZOO
AZQ,DME,95,HAZARD,HAZARD,KY,US,ASO,37.3912573,-83.26300508,111.2,49X,OPERATIONAL RESTRICTED,Y,Y,ZID,ZID,POINT:NAVAID:AZQ:DME,POINT:NAVAID:AZQ:DME:US:KY:HAZARD
BA,NDB,96,CLIFS,COLUMBUS,IN,US,AGL,39.32199338,-85.81859958,410,,OPERATIONAL IFR,Y,Y,ZID,ZID,POINT:NAVAID:BA:NDB,POINT:NAVAID:BA:NDB:US:IN:COLUMBUS
BAB,TACAN,97,BEALE,MARYSVILLE,CA,US,AWP,39.13479488,-121.44075797,108.6,23X,OPERATIONAL RESTRICTED,Y,Y,ZOA,ZOA,POINT:NAVAID:BAB:TACAN,POINT:NAVAID:BAB:TACAN:US:CA:MARYSVILLE
BAD,TACAN,98,BARKSDALE,BOSSIER CITY,LA,US,ASW,32.50333888,-93.66776944,115.8,105X,OPERATIONAL RESTRICTED,Y,Y,ZFW,ZFW,POINT:NAVAID:BAD:TACAN,POINT:NAVAID:BAD:TACAN:US:LA:BOSSIER_CITY
BAE,VOR/DME,99,BADGER,MILWAUKEE,WI,US,AGL,43.11685325,-88.28434405,116.4,111X,OPERATIONAL IFR,Y,Y,ZAU,ZAU,POINT:NAVAID:BAE:VOR/DME,POINT:NAVAID:BAE:VOR/DME:US:WI:MILWAUKEE
BAF,VORTAC,100,BARNES,WESTFIELD/SPRINGFIELD,MA,US,ANE,42.16195908,-72.7161995,113,77X,OPERATIONAL RESTRICTED,Y,Y,ZBW,ZBW,POINT:NAVAID:BAF:VORTAC,POINT:NAVAID:BAF:VORTAC:US:MA:WESTFIELD/SPRINGFIELD
BAL,VORTAC,101,BALTIMORE,BALTIMORE,MD,US,AEA,39.17106341,-76.66125625,115.1,98X,OPERATIONAL RESTRICTED,Y,Y,ZDC,ZDC,POINT:NAVAID:BAL:VORTAC,POINT:NAVAID:BAL:VORTAC:US:MD:BALTIMORE
BAM,VORTAC,102,BATTLE MOUNTAIN,BATTLE MOUNTAIN,NV,US,AWP,40.56908061,-116.92225627,112.2,59X,OPERATIONAL RESTRICTED,Y,Y,ZLC,ZLC,POINT:NAVAID:BAM:VORTAC,POINT:NAVAID:BAM:VORTAC:US:NV:BATTLE_MOUNTAIN
BAR,NDB,103,HEMLOCK,BANNER ELK,NC,US,ASO,36.15345944,-81.87983527,320,,OPERATIONAL VFR ONLY,N,N,ZTL,ZTL,POINT:NAVAID:BAR:NDB,POINT:NAVAID:BAR:NDB:US:NC:BANNER_ELK
BCE,VORTAC,104,BRYCE CANYON,BRYCE CANYON,UT,US,ANM,37.68918744,-112.3039023,112.8,75X,OPERATIONAL RESTRICTED,Y,Y,ZLC,ZLC,POINT:NAVAID:BCE:VORTAC,POINT:NAVAID:BCE:VORTAC:US:UT:BRYCE_CANYON
BDA,VOR/DME,105,BERMUDA,HAMILTON,,BM,,32.36438611,-64.6895725,113.9,86X,OPERATIONAL RESTRICTED,N,Y,,,POINT:NAVAID:BDA:VOR/DME,POINT:NAVAID:BDA:VOR/DME:BM::HAMILTON
BDE,DME,106,BAUDETTE,BAUDETTE,MN,US,AGL,48.72279663,-94.60728777,111.6,53X,OPERATIONAL RESTRICTED,Y,Y,ZMP,ZMP,POINT:NAVAID:BDE:DME,POINT:NAVAID:BDE:DME:US:MN:BAUDETTE
BDF,TACAN,107,BRADFORD,BRADFORD,IL,US,AGL,41.15973138,-89.58787305,114.7,94X,OPERATIONAL RESTRICTED,Y,Y,ZAU,ZAU,POINT:NAVAID:BDF:TACAN,POINT:NAVAID:BDF:TACAN:US:IL:BRADFORD
BDH,VOR/DME,108,WILLMAR,WILLMAR,MN,US,AGL,45.11767052,-95.12706136,113.7,84X,OPERATIONAL IFR,Y,Y,ZMP,ZMP,POINT:NAVAID:BDH:VOR/DME,POINT:NAVAID:BDH:VOR/DME:US:MN:WILLMAR
BDL,VOT,109,BRADLEY,WINDSOR LOCKS,CT,US,ANE,41.93254722,-72.687075,111.4,,OPERATIONAL IFR,Y,Y,,,POINT:NAVAID:BDL:VOT,POINT:NAVAID:BDL:VOT:US:CT:WINDSOR_LOCKS
BDR,VOR/DME,110,BRIDGEPORT,BRIDGEPORT,CT,US,ANE,41.16070566,-73.1244863,108.8,25X,OPERATIONAL RESTRICTED,Y,Y,ZBW,ZNY,POINT:NAVAID:BDR:VOR/DME,POINT:NAVAID:BDR:VOR/DME:US:CT:BRIDGEPORT
BDR,VOT,111,BRIDGEPORT,BRIDGEPORT,CT,US,ANE,41.16138888,-73.12583333,109.25,,OPERATIONAL IFR,Y,Y,,,POINT:NAVAID:BDR:VOT,POINT:NAVAID:BDR:VOT:US:CT:BRIDGEPORT
BED,VOT,112,BEDFORD,BEDFORD,MA,US,ANE,42.46527222,-71.28898055,110,,OPERATIONAL IFR,Y,Y,,,POINT:NAVAID:BED:VOT,POINT:NAVAID:BED:VOT:US:MA:BEDFORD
BER,TACAN,113,ADAK,ADAK ISLAND,AK,US,AAL,51.87123055,-176.67411111,113,77X,OPERATIONAL IFR,Y,Y,ZAN,ZAN,POINT:NAVAID:BER:TACAN,POINT:NAVAID:BER:TACAN:US:AK:ADAK_ISLAND
BET,VORTAC,114,BETHEL,BETHEL,AK,US,AAL,60.784837,-161.82432983,114.1,88X,OPERATIONAL IFR,Y,Y,ZAN,ZAN,POINT:NAVAID:BET:VORTAC,POINT:NAVAID:BET:VORTAC:US:AK:BETHEL
BFD,DME,115,BRADFORD,BRADFORD,PA,US,AEA,41.78638658,-78.61934855,116.6,113X,OPERATIONAL RESTRICTED,Y,Y,ZOB,ZOB,POINT:NAVAID:BFD:DME,POINT:NAVAID:BFD:DME:US:PA:BRADFORD
BFF,VORTAC,116,SCOTTSBLUFF,SCOTTSBLUFF,NE,US,ACE,41.894163,-103.48203161,112.6,73X,OPERATIONAL RESTRICTED,Y,Y,ZDV,ZDV,POINT:NAVAID:BFF:VORTAC,POINT:NAVAID:BFF:VORTAC:US:NE:SCOTTSBLUFF
BFI,VOT,117,SEATTLE,SEATTLE,WA,US,ANM,47.52918805,-122.30428138,108.6,,OPERATIONAL IFR,Y,Y,,,POINT:NAVAID:BFI:VOT,POINT:NAVAID:BFI:VOT:US:WA:SEATTLE
BFL,VOT,118,BAKERSFIELD,BAKERSFIELD,CA,US,AWP,35.42495833,-119.04676944,111.2,,OPERATIONAL IFR,N,Y,,,POINT:NAVAID:BFL:VOT,POINT:NAVAID:BFL:VOT:US:CA:BAKERSFIELD
BFM,VORTAC,119,BROOKLEY,MOBILE,AL,US,ASO,30.61272105,-88.05549347,116.35,110Y,OPERATIONAL RESTRICTED,Y,Y,ZHU,ZHU,POINT:NAVAID:BFM:VORTAC,POINT:NAVAID:BFM:VORTAC:US:AL:MOBILE
BFV,VORTAC,120,BURNS FLAT,CLINTON,OK,US,ASW,35.23694444,-99.20616666,110,37X,OPERATIONAL IFR,Y,Y,ZFW,ZFW,POINT:NAVAID:BFV:VORTAC,POINT:NAVAID:BFV:VORTAC:US:OK:CLINTON
BGD,TACAN,121,BORGER,BORGER,TX,US,ASW,35.80707252,-101.38215258,108.6,23X,OPERATIONAL RESTRICTED,Y,Y,ZAB,ZAB,POINT:NAVAID:BGD:TACAN,POINT:NAVAID:BGD:TACAN:US:TX:BORGER
BGI,VOR/DME,122,ADAMS,BARBADOS,,BB,,13.07504722,-59.48383055,112.7,74X,OPERATIONAL RESTRICTED,N,Y,,,POINT:NAVAID:BGI:VOR/DME,POINT:NAVAID:BGI:VOR/DME:BB::BARBADOS
BGQ,VORTAC,123,BIG LAKE,BIG LAKE,AK,US,AAL,61.5694325,-149.96715905,112.5,72X,OPERATIONAL IFR,Y,Y,ZAN,ZAN,POINT:NAVAID:BGQ:VORTAC,POINT:NAVAID:BGQ:VORTAC:US:AK:BIG_LAKE
BGR,VORTAC,124,BANGOR,BANGOR,ME,US,ANE,44.84179497,-68.87396533,114.8,95X,OPERATIONAL IFR,Y,Y,ZBW,ZBW,POINT:NAVAID:BGR:VORTAC,POINT:NAVAID:BGR:VORTAC:US:ME:BANGOR
BGS,VORTAC,125,BIG SPRING,BIG SPRING,TX,US,ASW,32.38558833,-101.48368277,117.2,119X,OPERATIONAL IFR,Y,Y,ZFW,ZFW,POINT:NAVAID:BGS:VORTAC,POINT:NAVAID:BGS:VORTAC:US:TX:BIG_SPRING
BH,NDB,126,MCDEN,BIRMINGHAM,AL,US,ASO,33.51152341,-86.84559205,224,,OPERATIONAL IFR,Y,Y,ZTL,ZTL,POINT:NAVAID:BH:NDB,POINT:NAVAID:BH:NDB:US:AL:BIRMINGHAM
BHM,VOT,127,BIRMINGHAM MUNI,BIRMINGHAM,AL,US,ASO,33.56321527,-86.75548944,110,,OPERATIONAL IFR,N,Y,,,POINT:NAVAID:BHM:VOT,POINT:NAVAID:BHM:VOT:US:AL:BIRMINGHAM
BIB,VORTAC,128,BIBLE GROVE,BIBLE GROVE,IL,US,AGL,38.92034533,-88.48180463,109,27X,OPERATIONAL IFR,Y,Y,ZKC,ZKC,POINT:NAVAID:BIB:VORTAC,POINT:NAVAID:BIB:VORTAC:US:IL:BIBLE_GROVE
BIE,VOR,129,BEATRICE,BEATRICE,NE,US,ACE,40.30142758,-96.75464519,110.6,,OPERATIONAL IFR,Y,Y,ZMP,ZMP,POINT:NAVAID:BIE:VOR,POINT:NAVAID:BIE:VOR:US:NE:BEATRICE
BIG,VORTAC,130,BIG DELTA,DELTA JUNCTION FT GREELY,AK,US,AAL,64.00446111,-145.71724722,114.9,96X,OPERATIONAL RESTRICTED,Y,Y,ZAN,ZAN,POINT:NAVAID:BIG:VORTAC,POINT:NAVAID:BIG:VORTAC:US:AK:DELTA_JUNCTION_FT_GREELY
BIH,VOR/DME,131,BISHOP,BISHOP,CA,US,AWP,37.37694991,-118.36652638,113.35,80Y,OPERATIONAL RESTRICTED,Y,Y,ZOA,ZOA,POINT:NAVAID:BIH:VOR/DME,POINT:NAVAID:BIH:VOR/DME:US:CA:BISHOP
BIL,VORTAC,132,BILLINGS,BILLINGS,MT,US,ANM,45.80855919,-108.62464758,114.5,92X,OPERATIONAL RESTRICTED,Y,Y,ZLC,ZLC,POINT:NAVAID:BIL:VORTAC,POINT:NAVAID:BIL:VORTAC:US:MT:BILLINGS
BIS,VOR/DME,133,BISMARCK,BISMARCK,ND,US,AGL,46.76176119,-100.66540711,115.65,103Y,OPERATIONAL IFR,Y,Y,ZMP,ZMP,POINT:NAVAID:BIS:VOR/DME,POINT:NAVAID:BIS:VOR/DME:US:ND:BISMARCK
BIX,TACAN,134,KEESLER,BILOXI,MS,US,ASO,30.40708611,-88.92971388,111.8,55X,OPERATIONAL RESTRICTED,Y,Y,ZHU,ZHU,POINT:NAVAID:BIX:TACAN,POINT:NAVAID:BIX:TACAN:US:MS:BILOXI
BJA,TACAN,135,BURLINGTON,BURLINGTON,VT,US,ANE,44.47693647,-73.1567568,112.4,71X,OPERATIONAL RESTRICTED,Y,N,ZBW,ZBW,POINT:NAVAID:BJA:TACAN,POINT:NAVAID:BJA:TACAN:US:VT:BURLINGTON
BJB,VOR,136,WEST BEND,WEST BEND,WI,US,AGL,43.42197161,-88.12518125,109.8,,OPERATIONAL IFR,Y,Y,ZAU,ZAU,POINT:NAVAID:BJB:VOR,POINT:NAVAID:BJB:VOR:US:WI:WEST_BEND
BJC,VOR/DME,137,JEFFCO,DENVER,CO,US,ANM,39.91304025,-105.13898577,115.4,101X,OPERATIONAL RESTRICTED,Y,Y,ZDV,ZDV,POINT:NAVAID:BJC:VOR/DME,POINT:NAVAID:BJC:VOR/DME:US:CO:DENVER
BK,NDB,138,CHRLZ,BROOKINGS,SD,US,AGL,44.35452666,-96.94681527,335,,OPERATIONAL IFR,Y,Y,,,POINT:NAVAID:BK:NDB,POINT:NAVAID:BK:NDB:US:SD:BROOKINGS
BKA,VORTAC,139,BIORKA ISLAND,SITKA,AK,US,AAL,56.85940944,-135.55131222,113.8,85X,OPERATIONAL RESTRICTED,Y,Y,ZAN,ZAN,POINT:NAVAID:BKA:VORTAC,POINT:NAVAID:BKA:VORTAC:US:AK:SITKA
BKE,VOR/DME,140,BAKER CITY,BAKER CITY,OR,US,ANM,44.84059947,-117.80786827,115.3,100X,OPERATIONAL RESTRICTED,Y,Y,ZLC,ZLC,POINT:NAVAID:BKE:VOR/DME,POINT:NAVAID:BKE:VOR/DME:US:OR:BAKER_CITY
BKF,TACAN,141,BUCKLEY,AURORA,CO,US,ANM,39.70738611,-104.75238611,109.6,33X,OPERATIONAL IFR,Y,Y,ZDV,ZDV,POINT:NAVAID:BKF:TACAN,POINT:NAVAID:BKF:TACAN:US:CO:AURORA
BKT,NDB,142,BLACKSTONE,BLACKSTONE,VA,US,AEA,37.12742819,-78.04454341,326,,OPERATIONAL IFR,Y,Y,ZDC,ZDC,POINT:NAVAID:BKT:NDB,POINT:NAVAID:BKT:NDB:US:VA:BLACKSTONE
BKW,DME,143,BECKLEY,BECKLEY,WV,US,AEA,37.78029966,-81.1234555,117.7,124X,OPERATIONAL RESTRICTED,Y,Y,ZID,ZID,POINT:NAVAID:BKW:DME,POINT:NAVAID:BKW:DME:US:WV:BECKLEY
BLD,VORTAC,144,BOULDER CITY,BOULDER CITY,NV,US,AWP,35.99579022,-114.86357888,116.7,114X,OPERATIONAL RESTRICTED,Y,Y,ZLA,ZLA,POINT:NAVAID:BLD:VORTAC,POINT:NAVAID:BLD:VORTAC:US:NV:BOULDER_CITY
BLF,VOR/DME,145,BLUEFIELD,BLUEFIELD,WV,US,AEA,37.3064403,-81.19426936,115.05,97Y,OPERATIONAL RESTRICTED,Y,Y,ZID,ZID,POINT:NAVAID:BLF:VOR/DME,POINT:NAVAID:BLF:VOR/DME:US:WV:BLUEFIELD
BLH,VORTAC,146,BLYTHE,BLYTHE,CA,US,AWP,33.59606463,-114.76127336,117.4,121X,OPERATIONAL RESTRICTED,Y,Y,ZLA,ZLA,POINT:NAVAID:BLH:VORTAC,POINT:NAVAID:BLH:VORTAC:US:CA:BLYTHE
BMI,DME,147,BLOOMINGTON,BLOOMINGTON/NORMAL,IL,US,AGL,40.48080469,-88.93126641,108.2,19X,OPERATIONAL RESTRICTED,Y,Y,ZAU,ZAU,POINT:NAVAID:BMI:DME,POINT:NAVAID:BMI:DME:US:IL:BLOOMINGTON/NORMAL
BML,DME,148,BERLIN,BERLIN,NH,US,ANE,44.63353333,-71.18619166,116.55,112Y,OPERATIONAL RESTRICTED,Y,Y,ZBW,ZBW,POINT:NAVAID:BML:DME,POINT:NAVAID:BML:DME:US:NH:BERLIN
BMW,NDB,149,BARROW COUNTY,WINDER,GA,US,ASO,33.93535852,-83.58948041,404,,OPERATIONAL RESTRICTED,Y,Y,ZTL,ZTL,POINT:NAVAID:BMW:NDB,POINT:NAVAID:BMW:NDB:US:GA:WINDER
BNA,VORTAC,150,NASHVILLE,NASHVILLE,TN,US,ASO,36.13696036,-86.68477116,114.1,88X,OPERATIONAL RESTRICTED,Y,Y,ZME,ZME,POINT:NAVAID:BNA:VORTAC,POINT:NAVAID:BNA:VORTAC:US:TN:NASHVILLE
BNZ,NDB,151,ABBEVILLE,ABBEVILLE,LA,US,ASW,30.06114641,-92.12327991,230,,OPERATIONAL IFR,Y,Y,ZHU,ZHU,POINT:NAVAID:BNZ:NDB,POINT:NAVAID:BNZ:NDB:US:LA:ABBEVILLE
BO,NDB,152,BOOIE,BRISTOL,TN,US,ASO,36.39862797,-82.49626663,221,,OPERATIONAL IFR,Y,Y,ZTL,ZTL,POINT:NAVAID:BO:NDB,POINT:NAVAID:BO:NDB:US:TN:BRISTOL
BOI,VORTAC,153,BOISE,BOISE,ID,US,ANM,43.55281141,-116.19212561,113.3,80X,OPERATIONAL RESTRICTED,Y,Y,ZLC,ZLC,POINT:NAVAID:BOI:VORTAC,POINT:NAVAID:BOI:VORTAC:US:ID:BOISE
BOI,VOT,154,BOISE,BOISE,ID,US,ANM,43.55595,-116.21963611,116.7,,OPERATIONAL IFR,Y,Y,,,POINT:NAVAID:BOI:VOT,POINT:NAVAID:BOI:VOT:US:ID:BOISE
BOS,VOR/DME,155,BOSTON,BOSTON,MA,US,ANE,42.35744991,-70.98954838,112.7,74X,OPERATIONAL RESTRICTED,Y,Y,ZBW,ZBW,POINT:NAVAID:BOS:VOR/DME,POINT:NAVAID:BOS:VOR/DME:US:MA:BOSTON
BOS,VOT,156,BOSTON,BOSTON,MA,US,ANE,42.35704536,-70.99016872,111,,OPERATIONAL IFR,Y,Y,,,POINT:NAVAID:BOS:VOT,POINT:NAVAID:BOS:VOT:US:MA:BOSTON
BOY,VOR/DME,157,BOYSEN RESERVOIR,BOYSEN RESERVOIR,WY,US,ANM,43.46315194,-108.29971222,117.8,125X,OPERATIONAL RESTRICTED,Y,Y,ZLC,ZLC,POINT:NAVAID:BOY:VOR/DME,POINT:NAVAID:BOY:VOR/DME:US:WY:BOYSEN_RESERVOIR
BPI,VOR/DME,158,BIG PINEY,BIG PINEY,WY,US,ANM,42.57944744,-110.10921386,116.5,112X,OPERATIONAL RESTRICTED,Y,Y,ZLC,ZLC,POINT:NAVAID:BPI:VOR/DME,POINT:NAVAID:BPI:VOR/DME:US:WY:BIG_PINEY
BPT,DME,159,BEAUMONT,BEAUMONT/PORT ARTHUR,TX,US,ASW,29.94605402,-94.01622077,114.5,92X,OPERATIONAL IFR,Y,Y,ZHU,ZHU,POINT:NAVAID:BPT:DME,POINT:NAVAID:BPT:DME:US:TX:BEAUMONT/PORT_ARTHUR
BQN,VORTAC,160,BORINQUEN,AGUADILLA,PR,US,ASO,18.49840327,-67.10842158,113.5,82X,OPERATIONAL RESTRICTED,Y,Y,ZSU,ZSU,POINT:NAVAID:BQN:VORTAC,POINT:NAVAID:BQN:VORTAC:US:PR:AGUADILLA
BQP,NDB,161,BASTROP,BASTROP,LA,US,ASW,32.7546845,-91.88343386,329,,OPERATIONAL IFR,Y,Y,ZFW,ZFW,POINT:NAVAID:BQP:NDB,POINT:NAVAID:BQP:NDB:US:LA:BASTROP
BQS,VOR/DME,162,BRAYMER,BRAYMER,MO,US,ACE,39.63055555,-93.87527777,115.35,100Y,OPERATIONAL IFR,Y,Y,ZKC,ZKC,POINT:NAVAID:BQS:VOR/DME,POINT:NAVAID:BQS:VOR/DME:US:MO:BRAYMER
BQU,VOR/DME,163,BULLION,ELKO,NV,US,AWP,40.75967661,-115.76137625,115.85,105Y,OPERATIONAL RESTRICTED,Y,Y,ZLC,ZLC,POINT:NAVAID:BQU:VOR/DME,POINT:NAVAID:BQU:VOR/DME:US:NV:ELKO
BQZ,VOR/DME,164,ROBERT,STEAMBOAT SPRINGS,CO,US,ANM,40.4637635,-106.8723015,112.2,59X,OPERATIONAL RESTRICTED,Y,Y,ZDV,ZDV,POINT:NAVAID:BQZ:VOR/DME,POINT:NAVAID:BQZ:VOR/DME:US:CO:STEAMBOAT_SPRINGS
BR,NDB,165,LAREW,BRAINERD,MN,US,AGL,46.4566203,-94.02243002,251,,OPERATIONAL IFR,Y,Y,,,POINT:NAVAID:BR:NDB,POINT:NAVAID:BR:NDB:US:MN:BRAINERD
BR,NDB,166,DEPOO,BROWNSVILLE,TX,US,ASW,25.98366283,-97.50909794,393,,OPERATIONAL IFR,Y,Y,,,POINT:NAVAID:BR:NDB,POINT:NAVAID:BR:NDB:US:TX:BROWNSVILLE
BR,NDB,167,BURNS,BURLINGTON,IA,US,ACE,40.65435738,-91.12322608,390,,OPERATIONAL IFR,Y,Y,,,POINT:NAVAID:BR:NDB,POINT:NAVAID:BR:NDB:US:IA:BURLINGTON
BRA,NDB,168,BROAD RIVER,ASHEVILLE,NC,US,ASO,35.27275169,-82.47103705,379,,OPERATIONAL IFR,Y,Y,ZTL,ZTL,POINT:NAVAID:BRA:NDB,POINT:NAVAID:BRA:NDB:US:NC:ASHEVILLE
BRG,DME,169,BELEN,BELEN,NM,US,ASW,34.64972222,-106.83305555,114.75,94Y,OPERATIONAL RESTRICTED,Y,Y,ZAB,ZAB,POINT:NAVAID:BRG:DME,POINT:NAVAID:BRG:DME:US:NM:BELEN
BRK,VOR/DME,170,BLACK FOREST,COLORADO SPRINGS,CO,US,ANM,38.9445103,-104.63346708,112.5,72X,OPERATIONAL RESTRICTED,Y,Y,ZDV,ZDV,POINT:NAVAID:BRK:VOR/DME,POINT:NAVAID:BRK:VOR/DME:US:CO:COLORADO_SPRINGS
BRL,VOR/DME,171,BURLINGTON,BURLINGTON,IA,US,ACE,40.72345583,-90.92588972,115.55,102Y,OPERATIONAL IFR,Y,Y,ZAU,ZAU,POINT:NAVAID:BRL:VOR/DME,POINT:NAVAID:BRL:VOR/DME:US:IA:BURLINGTON
BRO,VORTAC,172,BROWNSVILLE,BROWNSVILLE,TX,US,ASW,25.92407216,-97.3752683,116.3,110X,OPERATIONAL RESTRICTED,Y,Y,ZHU,ZHU,POINT:NAVAID:BRO:VORTAC,POINT:NAVAID:BRO:VORTAC:US:TX:BROWNSVILLE
BRV,VORTAC,173,BROOKE,BROOKE,VA,US,AEA,38.33625733,-77.35286552,114.5,92X,OPERATIONAL RESTRICTED,Y,Y,ZDC,ZDC,POINT:NAVAID:BRV:VORTAC,POINT:NAVAID:BRV:VORTAC:US:VA:BROOKE
BRW,VOR/DME,174,BARROW,UTQIAGVIK,AK,US,AAL,71.2734263,-156.7881178,116.2,109X,OPERATIONAL IFR,Y,Y,ZAN,ZAN,POINT:NAVAID:BRW:VOR/DME,POINT:NAVAID:BRW:VOR/DME:US:AK:UTQIAGVIK
BRX,NDB,175,LA FONDA RANCH,BRACKETTVILLE,TX,US,ASW,29.20856972,-100.62397305,269,,OPERATIONAL VFR ONLY,Y,Y,ZHU,ZHU,POINT:NAVAID:BRX:NDB,POINT:NAVAID:BRX:NDB:US:TX:BRACKETTVILLE
BSR,VORTAC,176,BIG SUR,BIG SUR,CA,US,AWP,36.18129555,-121.64211222,114,87X,OPERATIONAL RESTRICTED,Y,Y,ZOA,ZOA,POINT:NAVAID:BSR:VORTAC,POINT:NAVAID:BSR:VORTAC:US:CA:BIG_SUR
BSV,VOR/DME,177,BRIGGS,BRIGGS,OH,US,AGL,40.74070638,-81.43211711,114.05,87Y,OPERATIONAL IFR,Y,Y,ZOB,ZOB,POINT:NAVAID:BSV:VOR/DME,POINT:NAVAID:BSV:VOR/DME:US:OH:BRIGGS
BT,NDB,178,RUNDI,BATON ROUGE,LA,US,ASW,30.58291925,-91.21107913,284,,OPERATIONAL IFR,Y,Y,,,POINT:NAVAID:BT:NDB,POINT:NAVAID:BT:NDB:US:LA:BATON_ROUGE
BT,NDB,179,BATOL,BATTLE CREEK,MI,US,AGL,42.36196208,-85.18432102,272,,OPERATIONAL IFR,Y,Y,ZAU,ZAU,POINT:NAVAID:BT:NDB,POINT:NAVAID:BT:NDB:US:MI:BATTLE_CREEK
BTG,VORTAC,180,BATTLE GROUND,BATTLE GROUND,WA,US,ANM,45.74781102,-122.59153655,116.6,113X,OPERATIONAL RESTRICTED,Y,Y,ZSE,ZSE,POINT:NAVAID:BTG:VORTAC,POINT:NAVAID:BTG:VORTAC:US:WA:BATTLE_GROUND
BTT,VOR/DME,181,BETTLES,BETTLES,AK,US,AAL,66.90500841,-151.53588286,116,107X,OPERATIONAL RESTRICTED,Y,Y,ZAN,ZAN,POINT:NAVAID:BTT:VOR/DME,POINT:NAVAID:BTT:VOR/DME:US:AK:BETTLES
BTV,VOR/DME,182,BURLINGTON,BURLINGTON,VT,US,ANE,44.39710472,-73.18263472,117.5,122X,OPERATIONAL RESTRICTED,Y,Y,ZBW,ZBW,POINT:NAVAID:BTV:VOR/DME,POINT:NAVAID:BTV:VOR/DME:US:VT:BURLINGTON
BTV,VOT,183,BURLINGTON,BURLINGTON,VT,US,ANE,44.47082041,-73.1554578,109,,OPERATIONAL IFR,Y,Y,,,POINT:NAVAID:BTV:VOT,POINT:NAVAID:BTV:VOT:US:VT:BURLINGTON
BTY,VORTAC,184,BEATTY,BEATTY,NV,US,AWP,36.80059727,-116.7476403,114.7,94X,OPERATIONAL RESTRICTED,Y,Y,ZLA,ZLA,POINT:NAVAID:BTY:VORTAC,POINT:NAVAID:BTY:VORTAC:US:NV:BEATTY
BU,NDB,185,KLUMP,BUFFALO,NY,US,AEA,43.00031536,-78.65077272,231,,OPERATIONAL IFR,Y,Y,,,POINT:NAVAID:BU:NDB,POINT:NAVAID:BU:NDB:US:NY:BUFFALO
BU,NDB,186,BOUTN,COLUMBUS,OH,US,AGL,39.819279,-83.204632,230,,OPERATIONAL IFR,Y,Y,ZID,ZID,POINT:NAVAID:BU:NDB,POINT:NAVAID:BU:NDB:US:OH:COLUMBUS
BUD,VOR,187,BUCKEYE,MARION,OH,US,AGL,40.61659738,-83.06382638,109.8,,OPERATIONAL IFR,Y,Y,ZOB,ZOB,POINT:NAVAID:BUD:VOR,POINT:NAVAID:BUD:VOR:US:OH:MARION
BUF,DME,188,BUFFALO,BUFFALO,NY,US,AEA,42.9289915,-78.64634947,116.4,111X,OPERATIONAL RESTRICTED,Y,Y,ZOB,ZOB,POINT:NAVAID:BUF:DME,POINT:NAVAID:BUF:DME:US:NY:BUFFALO
BUF,VOT,189,BUFFALO,BUFFALO,NY,US,AEA,42.939225,-78.73419722,109,,OPERATIONAL IFR,N,Y,,,POINT:NAVAID:BUF:VOT,POINT:NAVAID:BUF:VOT:US:NY:BUFFALO
BUM,VORTAC,190,BUTLER,BUTLER,MO,US,ACE,38.27208011,-94.48826111,115.9,106X,OPERATIONAL RESTRICTED,Y,Y,ZKC,ZKC,POINT:NAVAID:BUM:VORTAC,POINT:NAVAID:BUM:VORTAC:US:MO:BUTLER
BUP,NDB,191,BURNHAM,PITTSFIELD,ME,US,ANE,44.69771838,-69.35859227,348,,OPERATIONAL RESTRICTED,Y,Y,ZBW,ZBW,POINT:NAVAID:BUP:NDB,POINT:NAVAID:BUP:NDB:US:ME:PITTSFIELD
BUU,DME,192,BURBUN,BURLINGTON,WI,US,AGL,42.68932377,-88.30177905,114.5,92X,OPERATIONAL IFR,Y,Y,ZAU,ZAU,POINT:NAVAID:BUU:DME,POINT:NAVAID:BUU:DME:US:WI:BURLINGTON
BVG,NDB,193,BOLL WEEVIL,ENTERPRISE,AL,US,ASO,31.33939166,-85.98194166,352,,OPERATIONAL RESTRICTED,Y,Y,ZJX,ZJX,POINT:NAVAID:BVG:NDB,POINT:NAVAID:BVG:NDB:US:AL:ENTERPRISE
BVL,VORTAC,194,BONNEVILLE,BONNEVILLE,UT,US,ANM,40.7260975,-113.75741722,112.3,70X,OPERATIONAL RESTRICTED,Y,Y,ZLC,ZLC,POINT:NAVAID:BVL:VORTAC,POINT:NAVAID:BVL:VORTAC:US:UT:BONNEVILLE
BVO,VOR/DME,195,BARTLESVILLE,BARTLESVILLE,OK,US,ASW,36.83433472,-96.01843097,117.9,126X,OPERATIONAL IFR,Y,Y,ZKC,ZKC,POINT:NAVAID:BVO:VOR/DME,POINT:NAVAID:BVO:VOR/DME:US:OK:BARTLESVILLE
BVT,VORTAC,196,BOILER,LAFAYETTE,IN,US,AGL,40.55617161,-87.06937447,115.1,98X,OPERATIONAL IFR,Y,Y,ZAU,ZAU,POINT:NAVAID:BVT:VORTAC,POINT:NAVAID:BVT:VORTAC:US:IN:LAFAYETTE
BVY,FAN_MARKER,197,BEVERLY,BEVERLY,MA,US,ANE,42.61059388,-70.94327361,,,OPERATIONAL IFR,Y,Y,ZBW,ZBW,POINT:NAVAID:BVY:FAN_MARKER,POINT:NAVAID:BVY:FAN_MARKER:US:MA:BEVERLY
BW,NDB,198,NOORA,BOWLING GREEN,KY,US,ASO,36.88003702,-86.48159788,236,,OPERATIONAL IFR,Y,Y,,,POINT:NAVAID:BW:NDB,POINT:NAVAID:BW:NDB:US:KY:BOWLING_GREEN
BWD,VOR/DME,199,BROWNWOOD,BROWNWOOD,TX,US,ASW,31.89258252,-98.95746019,113.55,82Y,OPERATIONAL RESTRICTED,Y,Y,ZFW,ZFW,POINT:NAVAID:BWD:VOR/DME,POINT:NAVAID:BWD:VOR/DME:US:TX:BROWNWOOD
BWG,DME,200,BOWLING GREEN,BOWLING GREEN,KY,US,ASO,36.96444444,-86.42333333,113.35,80Y,OPERATIONAL RESTRICTED,Y,Y,ZME,ZME,POINT:NAVAID:BWG:DME,POINT:NAVAID:BWG:DME:US:KY:BOWLING_GREEN
BWS,DME,201,BOLES,ALAMOGORDO,NM,US,ASW,32.82126111,-106.01315277,113.65,83Y,OPERATIONAL RESTRICTED,Y,Y,ZAB,ZAB,POINT:NAVAID:BWS:DME,POINT:NAVAID:BWS:DME:US:NM:ALAMOGORDO
BWZ,VOR/DME,202,BROADWAY,SCHOOLEY'S MOUNTAIN,NJ,US,AEA,40.79843277,-74.8218325,114.2,89X,OPERATIONAL RESTRICTED,Y,Y,ZNY,ZNY,POINT:NAVAID:BWZ:VOR/DME,POINT:NAVAID:BWZ:VOR/DME:US:NJ:SCHOOLEY_S_MOUNTAIN
BXK,VORTAC,203,BUCKEYE,BUCKEYE,AZ,US,AWP,33.45345869,-112.82459369,110.6,43X,OPERATIONAL RESTRICTED,Y,Y,ZAB,ZAB,POINT:NAVAID:BXK:VORTAC,POINT:NAVAID:BXK:VORTAC:US:AZ:BUCKEYE
BXR,NDB,204,BIG DOCTOR,SIREN,WI,US,AGL,45.82127777,-92.36641666,203,,OPERATIONAL VFR ONLY,Y,Y,ZMP,ZMP,POINT:NAVAID:BXR:NDB,POINT:NAVAID:BXR:NDB:US:WI:SIREN
BYI,VOR/DME,205,BURLEY,BURLEY,ID,US,ANM,42.58023936,-113.86585758,114.1,88X,OPERATIONAL RESTRICTED,Y,Y,ZLC,ZLC,POINT:NAVAID:BYI:VOR/DME,POINT:NAVAID:BYI:VOR/DME:US:ID:BURLEY
BYP,VORTAC,206,BONHAM,BONHAM,TX,US,ASW,33.53748611,-96.23409444,114.6,93X,OPERATIONAL IFR,Y,Y,ZFW,ZFW,POINT:NAVAID:BYP:VORTAC,POINT:NAVAID:BYP:VORTAC:US:TX:BONHAM
BYT,DME,207,BRADLEY,WINDSOR LOCKS,CT,US,ANE,41.93056166,-72.69987277,117.05,117Y,OPERATIONAL RESTRICTED,Y,Y,ZBW,ZBW,POINT:NAVAID:BYT:DME,POINT:NAVAID:BYT:DME:US:CT:WINDSOR_LOCKS
BZA,VORTAC,208,BARD,YUMA,CA,US,AWP,32.7681075,-114.60294638,116.8,115X,OPERATIONAL RESTRICTED,Y,Y,ZLA,ZLA,POINT:NAVAID:BZA:VORTAC,POINT:NAVAID:BZA:VORTAC:US:CA:YUMA
BZJ,NDB,209,BELLGROVE,INDIANTOWN GAP,PA,US,AEA,40.43564722,-76.55302222,328,,OPERATIONAL IFR,Y,Y,ZNY,ZNY,POINT:NAVAID:BZJ:NDB,POINT:NAVAID:BZJ:NDB:US:PA:INDIANTOWN_GAP
BZM,VOR/DME,210,BARRETTS MOUNTAIN,HICKORY,NC,US,ASO,35.86885388,-81.24052888,113.75,84Y,OPERATIONAL RESTRICTED,Y,Y,ZTL,ZTL,POINT:NAVAID:BZM:VOR/DME,POINT:NAVAID:BZM:VOR/DME:US:NC:HICKORY
BZN,VOR/DME,211,BOZEMAN,BOZEMAN,MT,US,ANM,45.78389891,-111.15545488,112.4,71X,OPERATIONAL RESTRICTED,Y,Y,ZLC,ZLC,POINT:NAVAID:BZN:VOR/DME,POINT:NAVAID:BZN:VOR/DME:US:MT:BOZEMAN
BZQ,NDB,212,BULLO,STATESBORO,GA,US,ASO,32.41537355,-81.66403297,407,,OPERATIONAL IFR,Y,Y,ZJX,ZJX,POINT:NAVAID:BZQ:NDB,POINT:NAVAID:BZQ:NDB:US:GA:STATESBORO
CA,NDB,213,HARVS,NEWTON,KS,US,ACE,38.14492777,-97.27614444,395,,OPERATIONAL IFR,Y,Y,,,POINT:NAVAID:CA:NDB,POINT:NAVAID:CA:NDB:US:KS:NEWTON
CAE,VORTAC,214,COLUMBIA,COLUMBIA,SC,US,ASO,33.85724986,-81.0539028,114.7,94X,OPERATIONAL RESTRICTED,Y,Y,ZJX,ZJX,POINT:NAVAID:CAE:VORTAC,POINT:NAVAID:CAE:VORTAC:US:SC:COLUMBIA
CAK,VOT,215,AKRON/CANTON REGIONAL,AKRON,OH,US,AGL,40.91627916,-81.44205888,110.6,,OPERATIONAL IFR,N,Y,,,POINT:NAVAID:CAK:VOT,POINT:NAVAID:CAK:VOT:US:OH:AKRON
CAM,VOR/DME,216,CAMBRIDGE,CAMBRIDGE,NY,US,AEA,42.99428883,-73.34401891,115,97X,OPERATIONAL RESTRICTED,Y,Y,ZBW,ZBW,POINT:NAVAID:CAM:VOR/DME,POINT:NAVAID:CAM:VOR/DME:US:NY:CAMBRIDGE
CBM,VORTAC,217,CALEDONIA,COLUMBUS,MS,US,ASO,33.64153333,-88.43857222,115.2,99X,OPERATIONAL RESTRICTED,N,Y,ZME,ZME,POINT:NAVAID:CBM:VORTAC,POINT:NAVAID:CBM:VORTAC:US:MS:COLUMBUS
CBU,TACAN,218,COLUMBIA,PORTLAND,OR,US,ANM,45.588631,-122.61125241,109.2,29X,OPERATIONAL RESTRICTED,Y,Y,ZSE,ZSE,POINT:NAVAID:CBU:TACAN,POINT:NAVAID:CBU:TACAN:US:OR:PORTLAND
CCC,VOR/DME,219,CALVERTON,CALVERTON,NY,US,AEA,40.92961883,-72.79885825,114.55,92Y,OPERATIONAL RESTRICTED,Y,Y,ZBW,ZNY,POINT:NAVAID:CCC:VOR/DME,POINT:NAVAID:CCC:VOR/DME:US:NY:CALVERTON
CCR,VOR/DME,220,CONCORD,CONCORD,CA,US,AWP,38.0449203,-122.0452073,117,117X,OPERATIONAL RESTRICTED,Y,Y,ZOA,ZOA,POINT:NAVAID:CCR:VOR/DME,POINT:NAVAID:CCR:VOR/DME:US:CA:CONCORD
CCT,DME,221,CENTRAL CITY,CENTRAL CITY,KY,US,ASO,37.38242172,-87.26370347,109.8,35X,OPERATIONAL IFR,Y,Y,ZID,ZID,POINT:NAVAID:CCT:DME,POINT:NAVAID:CCT:DME:US:KY:CENTRAL_CITY
CCV,TACAN,222,CAPE CHARLES,CAPE CHARLES,VA,US,AEA,37.34753888,-75.99765277,112.2,59X,OPERATIONAL RESTRICTED,Y,Y,ZDC,ZDC,POINT:NAVAID:CCV:TACAN,POINT:NAVAID:CCV:TACAN:US:VA:CAPE_CHARLES
CD,NDB,223,DAWES,CHADRON,NE,US,ACE,42.75518016,-103.17465852,362,,OPERATIONAL IFR,Y,Y,,,POINT:NAVAID:CD:NDB,POINT:NAVAID:CD:NDB:US:NE:CHADRON
CDB,VORTAC,224,COLD BAY,COLD BAY,AK,US,AAL,55.26729461,-162.77399627,112.6,73X,OPERATIONAL RESTRICTED,Y,Y,ZAN,ZAN,POINT:NAVAID:CDB:VORTAC,POINT:NAVAID:CDB:VORTAC:US:AK:COLD_BAY
CDO,VOR/DME,225,PUNTA CAUCEDO,SANTO DOMINGO,,DO,,18.43415833,-69.66734166,114.7,94X,OPERATIONAL IFR,N,Y,,,POINT:NAVAID:CDO:VOR/DME,POINT:NAVAID:CDO:VOR/DME:DO::SANTO_DOMINGO
CDS,VORTAC,226,CHILDRESS,CHILDRESS,TX,US,ASW,34.36906502,-100.28902758,117,117X,OPERATIONAL IFR,Y,Y,ZFW,ZFW,POINT:NAVAID:CDS:VORTAC,POINT:NAVAID:CDS:VORTAC:US:TX:CHILDRESS
CE,NDB,227,KOBRA,CRESTVIEW,FL,US,ASO,30.85285316,-86.53660963,201,,OPERATIONAL IFR,Y,Y,,,POINT:NAVAID:CE:NDB,POINT:NAVAID:CE:NDB:US:FL:CRESTVIEW
CEC,VORTAC,228,CRESCENT CITY,CRESCENT CITY,CA,US,AWP,41.77957883,-124.24084708,109,27X,OPERATIONAL IFR,Y,Y,ZSE,ZSE,POINT:NAVAID:CEC:VORTAC,POINT:NAVAID:CEC:VORTAC:US:CA:CRESCENT_CITY
CEF,TACAN,229,WESTOVER,SPRINGFIELD/CHICOPEE,MA,US,ANE,42.19754433,-72.52631494,114,87X,OPERATIONAL RESTRICTED,Y,Y,ZBW,ZBW,POINT:NAVAID:CEF:TACAN,POINT:NAVAID:CEF:TACAN:US:MA:SPRINGFIELD/CHICOPEE
CEP,NDB,230,CAPITAN,RUIDOSO,NM,US,ASW,33.48988586,-105.40433775,278,,OPERATIONAL IFR,Y,Y,ZAB,ZAB,POINT:NAVAID:CEP:NDB,POINT:NAVAID:CEP:NDB:US:NM:RUIDOSO
CEW,VORTAC,231,CRESTVIEW,CRESTVIEW,FL,US,ASO,30.82617375,-86.67914327,115.9,106X,OPERATIONAL RESTRICTED,Y,Y,ZJX,ZJX,POINT:NAVAID:CEW:VORTAC,POINT:NAVAID:CEW:VORTAC:US:FL:CRESTVIEW
CEZ,VOR/DME,232,CORTEZ,CORTEZ,CO,US,ANM,37.38984977,-108.5617515,114.35,90Y,OPERATIONAL RESTRICTED,Y,Y,ZDV,ZDV,POINT:NAVAID:CEZ:VOR/DME,POINT:NAVAID:CEZ:VOR/DME:US:CO:CORTEZ
CFB,VOR/DME,233,BINGHAMTON,BINGHAMTON,NY,US,AEA,42.15749036,-76.13647161,112.2,59X,OPERATIONAL RESTRICTED,Y,Y,ZNY,ZNY,POINT:NAVAID:CFB:VOR/DME,POINT:NAVAID:CFB:VOR/DME:US:NY:BINGHAMTON
CFJ,NDB,234,CRAWFORDSVILLE,CRAWFORDSVILLE,IN,US,AGL,39.98094905,-86.91572175,388,,OPERATIONAL IFR,Y,Y,ZID,ZID,POINT:NAVAID:CFJ:NDB,POINT:NAVAID:CFJ:NDB:US:IN:CRAWFORDSVILLE
CFX,NDB,235,CADIZ,CADIZ,OH,US,AGL,40.23674372,-81.01329447,239,,OPERATIONAL VFR ONLY,Y,Y,ZOB,ZOB,POINT:NAVAID:CFX:NDB,POINT:NAVAID:CFX:NDB:US:OH:CADIZ
CFY,NDB,236,EVANS,LAKE CITY,SC,US,ASO,33.85568352,-79.76593152,420,,OPERATIONAL IFR,Y,Y,ZJX,ZJX,POINT:NAVAID:CFY:NDB,POINT:NAVAID:CFY:NDB:US:SC:LAKE_CITY
CG,NDB,237,DUTCH,CAPE GIRARDEAU,MO,US,ACE,37.25334716,-89.70045675,248,,OPERATIONAL IFR,Y,Y,,,POINT:NAVAID:CG:NDB,POINT:NAVAID:CG:NDB:US:MO:CAPE_GIRARDEAU
CGG,VOR,238,GRAYLING,GRAYLING,MI,US,AGL,44.68141816,-84.72859688,109.8,,OPERATIONAL IFR,Y,Y,ZMP,ZMP,POINT:NAVAID:CGG:VOR,POINT:NAVAID:CGG:VOR:US:MI:GRAYLING
CGI,DME,239,CAPE GIRARDEAU,CAPE GIRARDEAU,MO,US,ACE,37.22753908,-89.57241108,112.9,76X,OPERATIONAL IFR,Y,Y,ZME,ZME,POINT:NAVAID:CGI:DME,POINT:NAVAID:CGI:DME:US:MO:CAPE_GIRARDEAU
CGL,NDB,240,COGHLAN ISLAND,COGHLAN ISLAND,AK,US,AAL,58.35932547,-134.699451,212,,OPERATIONAL RESTRICTED,Y,Y,ZAN,ZAN,POINT:NAVAID:CGL:NDB,POINT:NAVAID:CGL:NDB:US:AK:COGHLAN_ISLAND
CGT,VORTAC,241,CHICAGO HEIGHTS,CHICAGO HEIGHTS,IL,US,AGL,41.51000658,-87.57154611,114.2,89X,OPERATIONAL RESTRICTED,Y,Y,ZAU,ZAU,POINT:NAVAID:CGT:VORTAC,POINT:NAVAID:CGT:VORTAC:US:IL:CHICAGO_HEIGHTS
CH,NDB,242,ASHLY,CHARLESTON,SC,US,ASO,32.97632419,-80.09745494,329,,OPERATIONAL IFR,Y,Y,ZJX,ZJX,POINT:NAVAID:CH:NDB,POINT:NAVAID:CH:NDB:US:SC:CHARLESTON
CHE,VOR/DME,243,HAYDEN,HAYDEN,CO,US,ANM,40.52008166,-107.30490102,115.6,103X,OPERATIONAL RESTRICTED,Y,Y,ZDV,ZDV,POINT:NAVAID:CHE:VOR/DME,POINT:NAVAID:CHE:VOR/DME:US:CO:HAYDEN
CHS,VORTAC,244,CHARLESTON,CHARLESTON,SC,US,ASO,32.89431919,-80.03781427,113.5,82X,OPERATIONAL RESTRICTED,Y,Y,ZJX,ZJX,POINT:NAVAID:CHS:VORTAC,POINT:NAVAID:CHS:VORTAC:US:SC:CHARLESTON
CI,NDB,245,KOLOE,SAULT STE MARIE,MI,US,AGL,46.33252927,-84.54246672,400,,OPERATIONAL IFR,Y,Y,ZMP,ZMP,POINT:NAVAID:CI:NDB,POINT:NAVAID:CI:NDB:US:MI:SAULT_STE_MARIE
CID,VOR/DME,246,CEDAR RAPIDS,CEDAR RAPIDS,IA,US,ACE,41.8875478,-91.78574891,114.1,88X,OPERATIONAL IFR,Y,Y,ZAU,ZAU,POINT:NAVAID:CID:VOR/DME,POINT:NAVAID:CID:VOR/DME:US:IA:CEDAR_RAPIDS
CIM,VORTAC,247,CIMARRON,CIMARRON,NM,US,ASW,36.49139694,-104.87199972,116.4,111X,OPERATIONAL RESTRICTED,Y,Y,ZAB,ZAB,POINT:NAVAID:CIM:VORTAC,POINT:NAVAID:CIM:VORTAC:US:NM:CIMARRON
CIP,DME,248,CLARION,CLARION,PA,US,AEA,41.14629333,-79.45797386,113.85,85Y,OPERATIONAL IFR,Y,Y,ZOB,ZOB,POINT:NAVAID:CIP:DME,POINT:NAVAID:CIP:DME:US:PA:CLARION
CJ,NDB,249,CALDE,SPRINGFIELD,IL,US,AGL,39.79439552,-89.59222483,240,,OPERATIONAL IFR,Y,Y,,,POINT:NAVAID:CJ:NDB,POINT:NAVAID:CJ:NDB:US:IL:SPRINGFIELD
CK,NDB,250,SNUFF,CLARKSVILLE,TN,US,ASO,36.52705713,-87.38675636,335,,OPERATIONAL IFR,Y,Y,,,POINT:NAVAID:CK:NDB,POINT:NAVAID:CK:NDB:US:TN:CLARKSVILLE
CKB,VOR/DME,251,CLARKSBURG,CLARKSBURG,WV,US,AEA,39.2532178,-80.26786161,112.6,73X,OPERATIONAL RESTRICTED,Y,Y,ZOB,ZOB,POINT:NAVAID:CKB:VOR/DME,POINT:NAVAID:CKB:VOR/DME:US:WV:CLARKSBURG
CKH,VORTAC,252,KOKO HEAD,KOKO HEAD,HI,US,AWP,21.26511222,-157.70298138,113.9,86X,OPERATIONAL RESTRICTED,Y,Y,ZHN,ZHN,POINT:NAVAID:CKH:VORTAC,POINT:NAVAID:CKH:VORTAC:US:HI:KOKO_HEAD
CKV,VOR/DME,253,CLARKSVILLE,CLARKSVILLE,TN,US,ASO,36.62198602,-87.41265922,110.6,43X,OPERATIONAL RESTRICTED,Y,Y,ZME,ZME,POINT:NAVAID:CKV:VOR/DME,POINT:NAVAID:CKV:VOR/DME:US:TN:CLARKSVILLE
CKW,VOR/DME,254,CHEROKEE,CHEROKEE,WY,US,ANM,41.75570944,-107.58198222,115,97X,OPERATIONAL RESTRICTED,Y,Y,ZDV,ZDV,POINT:NAVAID:CKW:VOR/DME,POINT:NAVAID:CKW:VOR/DME:US:WY:CHEROKEE
CL,NDB,255,ROWDY,COLLEGE STATION,TX,US,ASW,30.49377222,-96.33779494,260,,OPERATIONAL IFR,Y,Y,,,POINT:NAVAID:CL:NDB,POINT:NAVAID:CL:NDB:US:TX:COLLEGE_STATION
CLE,VOT,256,CLEVELAND,CLEVELAND,OH,US,AGL,41.41895558,-81.85007147,110.4,,OPERATIONAL IFR,N,Y,,,POINT:NAVAID:CLE:VOT,POINT:NAVAID:CLE:VOT:US:OH:CLEVELAND
CLL,VORTAC,257,COLLEGE STATION,COLLEGE STATION,TX,US,ASW,30.60500172,-96.42068075,113.3,80X,OPERATIONAL RESTRICTED,Y,Y,ZHU,ZHU,POINT:NAVAID:CLL:VORTAC,POINT:NAVAID:CLL:VORTAC:US:TX:COLLEGE_STATION
CLT,VOR/DME,258,CHARLOTTE,CHARLOTTE,NC,US,ASO,35.19028866,-80.95175344,115,97X,OPERATIONAL RESTRICTED,Y,Y,ZTL,ZTL,POINT:NAVAID:CLT:VOR/DME,POINT:NAVAID:CLT:VOR/DME:US:NC:CHARLOTTE
CLT,VOT,259,CHARLOTTE,CHARLOTTE,NC,US,ASO,35.22472222,-80.95666666,112,,OPERATIONAL IFR,N,Y,,,POINT:NAVAID:CLT:VOT,POINT:NAVAID:CLT:VOT:US:NC:CHARLOTTE
CM,NDB,260,VEALS,CHAMPAIGN/URBANA,IL,US,AGL,39.96618755,-88.18239252,407,,OPERATIONAL IFR,Y,Y,,,POINT:NAVAID:CM:NDB,POINT:NAVAID:CM:NDB:US:IL:CHAMPAIGN/URBANA
CMA,VOR/DME,261,CAMARILLO,CAMARILLO,CA,US,AWP,34.21252102,-119.09435519,116.85,115Y,OPERATIONAL RESTRICTED,Y,Y,ZLA,ZLA,POINT:NAVAID:CMA:VOR/DME,POINT:NAVAID:CMA:VOR/DME:US:CA:CAMARILLO
CME,VORTAC,262,CHISUM,ROSWELL,NM,US,ASW,33.33747477,-104.62124491,116.1,108X,OPERATIONAL RESTRICTED,Y,Y,ZAB,ZAB,POINT:NAVAID:CME:VORTAC,POINT:NAVAID:CME:VORTAC:US:NM:ROSWELL
CMI,VORTAC,263,CHAMPAIGN,CHAMPAIGN/URBANA,IL,US,AGL,40.03453125,-88.2760755,115.75,104Y,OPERATIONAL RESTRICTED,Y,Y,ZAU,ZAU,POINT:NAVAID:CMI:VORTAC,POINT:NAVAID:CMI:VORTAC:US:IL:CHAMPAIGN/URBANA
CMJ,NDB,264,CLAM COVE,KETCHIKAN,AK,US,AAL,55.34217341,-131.69076516,396,,OPERATIONAL RESTRICTED,Y,Y,ZAN,ZAN,POINT:NAVAID:CMJ:NDB,POINT:NAVAID:CMJ:NDB:US:AK:KETCHIKAN
CMK,VOR/DME,265,CARMEL,CARMEL,NY,US,AEA,41.28008941,-73.58132641,116.6,113X,OPERATIONAL RESTRICTED,Y,Y,ZBW,ZNY,POINT:NAVAID:CMK:VOR/DME,POINT:NAVAID:CMK:VOR/DME:US:NY:CARMEL
CMX,VOR/DME,266,HOUGHTON,HANCOCK,MI,US,AGL,47.17026166,-88.485393,112.8,75X,OPERATIONAL RESTRICTED,Y,Y,ZMP,ZMP,POINT:NAVAID:CMX:VOR/DME,POINT:NAVAID:CMX:VOR/DME:US:MI:HANCOCK
CNG,VOR/DME,267,CUNNINGHAM,PADUCAH,KY,US,ASO,37.00860927,-88.83691277,113.1,78X,OPERATIONAL RESTRICTED,Y,Y,ZME,ZME,POINT:NAVAID:CNG:VOR/DME,POINT:NAVAID:CNG:VOR/DME:US:KY:PADUCAH
CNH,NDB,268,CLAREMONT,CLAREMONT,NH,US,ANE,43.36917425,-72.37117311,233,,OPERATIONAL RESTRICTED,Y,Y,ZBW,ZBW,POINT:NAVAID:CNH:NDB,POINT:NAVAID:CNH:NDB:US:NH:CLAREMONT
CNM,VORTAC,269,CARLSBAD,CARLSBAD,NM,US,ASW,32.25661338,-104.22603761,116.3,110X,OPERATIONAL RESTRICTED,Y,Y,ZAB,ZAB,POINT:NAVAID:CNM:VORTAC,POINT:NAVAID:CNM:VORTAC:US:NM:CARLSBAD
CNP,NDB,270,CHAPPELL,CHAPPELL,NE,US,ACE,41.07665555,-102.45888222,383,,OPERATIONAL IFR,Y,Y,ZDV,ZDV,POINT:NAVAID:CNP:NDB,POINT:NAVAID:CNP:NDB:US:NE:CHAPPELL
CNT,DME,271,CURRANT,CURRANT,NV,US,AWP,38.66833333,-115.59888888,114.95,96Y,OPERATIONAL RESTRICTED,Y,Y,ZLC,ZLC,POINT:NAVAID:CNT:DME,POINT:NAVAID:CNT:DME:US:NV:CURRANT
CNU,DME,272,CHANUTE,CHANUTE,KS,US,ACE,37.62615902,-95.59347025,109.2,29X,OPERATIONAL IFR,Y,Y,ZKC,ZKC,POINT:NAVAID:CNU:DME,POINT:NAVAID:CNU:DME:US:KS:CHANUTE
CNX,VORTAC,273,CORONA,CORONA,NM,US,ASW,34.36701527,-105.67800472,115.5,102X,OPERATIONAL RESTRICTED,Y,Y,ZAB,ZAB,POINT:NAVAID:CNX:VORTAC,POINT:NAVAID:CNX:VORTAC:US:NM:CORONA
CO,NDB,274,PETEY,COLORADO SPRINGS,CO,US,ANM,38.6944033,-104.71634602,407,,OPERATIONAL IFR,Y,Y,ZDV,ZDV,POINT:NAVAID:CO:NDB,POINT:NAVAID:CO:NDB:US:CO:COLORADO_SPRINGS
CO,NDB,275,EPSOM,CONCORD,NH,US,ANE,43.11877694,-71.45242944,216,,OPERATIONAL RESTRICTED,Y,Y,ZBW,ZBW,POINT:NAVAID:CO:NDB,POINT:NAVAID:CO:NDB:US:NH:CONCORD
COD,VOR/DME,276,CODY,CODY,WY,US,ANM,44.62045152,-108.96491725,111.8,55X,OPERATIONAL RESTRICTED,Y,Y,ZLC,ZLC,POINT:NAVAID:COD:VOR/DME,POINT:NAVAID:COD:VOR/DME:US:WY:CODY
COE,VOR/DME,277,COEUR D'ALENE,COEUR D'ALENE,ID,US,ANM,47.77369722,-116.82058833,108.8,25X,OPERATIONAL RESTRICTED,Y,Y,ZSE,ZSE,POINT:NAVAID:COE:VOR/DME,POINT:NAVAID:COE:VOR/DME:US:ID:COEUR_D_ALENE
COF,TACAN,278,PATRICK,COCOA BEACH,FL,US,ASO,28.23768333,-80.61175833,115,97X,OPERATIONAL IFR,Y,Y,ZMA,ZMA,POINT:NAVAID:COF:TACAN,POINT:NAVAID:COF:TACAN:US:FL:COCOA_BEACH
COL,VOR/DME,279,COLTS NECK,COLTS NECK,NJ,US,AEA,40.31162952,-74.15972847,115.4,101X,OPERATIONAL RESTRICTED,Y,Y,ZNY,ZNY,POINT:NAVAID:COL:VOR/DME,POINT:NAVAID:COL:VOR/DME:US:NJ:COLTS_NECK
CON,VOR/DME,280,CONCORD,CONCORD,NH,US,ANE,43.219787,-71.575453,112.9,76X,OPERATIONAL RESTRICTED,Y,Y,ZBW,ZBW,POINT:NAVAID:CON:VOR/DME,POINT:NAVAID:CON:VOR/DME:US:NH:CONCORD
COR,NDB,281,SALYER FARMS,CORCORAN,CA,US,AWP,36.06605555,-119.53094444,205,,OPERATIONAL VFR ONLY,N,N,ZOA,ZOA,POINT:NAVAID:COR:NDB,POINT:NAVAID:COR:NDB:US:CA:CORCORAN
COS,VOT,282,COLORADO SPRINGS,COLORADO SPRINGS,CO,US,ANM,38.81638333,-104.69913888,110.4,,OPERATIONAL IFR,Y,Y,,,POINT:NAVAID:COS:VOT,POINT:NAVAID:COS:VOT:US:CO:COLORADO_SPRINGS
COT,VORTAC,283,COTULLA,COTULLA,TX,US,ASW,28.46201766,-99.11854502,115.8,105X,OPERATIONAL IFR,Y,Y,ZHU,ZHU,POINT:NAVAID:COT:VORTAC,POINT:NAVAID:COT:VORTAC:US:TX:COTULLA
COU,VOR/DME,284,COLUMBIA,COLUMBIA,MO,US,ACE,38.81082333,-92.21827388,110.2,39X,OPERATIONAL RESTRICTED,Y,Y,ZKC,ZKC,POINT:NAVAID:COU:VOR/DME,POINT:NAVAID:COU:VOR/DME:US:MO:COLUMBIA
COY,VOR/DME,285,ST CROIX,ST CROIX,VI,US,ASO,17.73450222,-64.70075255,108.2,19X,OPERATIONAL RESTRICTED,Y,Y,ZSU,ZSU,POINT:NAVAID:COY:VOR/DME,POINT:NAVAID:COY:VOR/DME:US:VI:ST_CROIX
CP,NDB,286,ACORE,CAHOKIA/ST LOUIS,IL,US,AGL,38.51988497,-90.05927033,350,,OPERATIONAL IFR,Y,Y,,,POINT:NAVAID:CP:NDB,POINT:NAVAID:CP:NDB:US:IL:CAHOKIA/ST_LOUIS
CPN,VOR/DME,287,COPPERTOWN,BUTTE,MT,US,ANM,46.032,-112.74752777,116.05,107Y,OPERATIONAL RESTRICTED,Y,Y,ZLC,ZLC,POINT:NAVAID:CPN:VOR/DME,POINT:NAVAID:CPN:VOR/DME:US:MT:BUTTE
CPZ,NDB,288,CHAPARROSA RANCH,LA PRYOR,TX,US,ASW,28.87843738,-99.99438172,385,,OPERATIONAL IFR,N,Y,ZHU,ZHU,POINT:NAVAID:CPZ:NDB,POINT:NAVAID:CPZ:NDB:US:TX:LA_PRYOR
CQN,NDB,289,DAISY,CHATTANOOGA,TN,US,ASO,35.16653883,-85.15737197,341,,OPERATIONAL IFR,Y,Y,ZTL,ZTL,POINT:NAVAID:CQN:NDB,POINT:NAVAID:CQN:NDB:US:TN:CHATTANOOGA
CQX,NDB,290,NAUSET,CHATHAM,MA,US,ANE,41.69193388,-69.9877475,279,,OPERATIONAL RESTRICTED,Y,Y,,ZBW,POINT:NAVAID:CQX:NDB,POINT:NAVAID:CQX:NDB:US:MA:CHATHAM
CQY,VORTAC,291,CEDAR CREEK,CEDAR CREEK,TX,US,ASW,32.18572222,-96.21810277,114.8,95X,OPERATIONAL IFR,Y,Y,ZFW,ZFW,POINT:NAVAID:CQY:VORTAC,POINT:NAVAID:CQY:VORTAC:US:TX:CEDAR_CREEK
CRE,VORTAC,292,GRAND STRAND,NORTH MYRTLE BEACH,SC,US,ASO,33.81384094,-78.72452211,114.4,91X,OPERATIONAL RESTRICTED,Y,Y,ZJX,ZJX,POINT:NAVAID:CRE:VORTAC,POINT:NAVAID:CRE:VORTAC:US:SC:NORTH_MYRTLE_BEACH
CRG,VORTAC,293,CRAIG,JACKSONVILLE,FL,US,ASO,30.33887919,-81.50992733,114.5,92X,OPERATIONAL IFR,Y,Y,ZJX,ZJX,POINT:NAVAID:CRG:VORTAC,POINT:NAVAID:CRG:VORTAC:US:FL:JACKSONVILLE
CRI,VOR/DME,294,CANARSIE,CANARSIE,NY,US,AEA,40.61246927,-73.89446313,112.3,70X,OPERATIONAL IFR,Y,Y,ZNY,ZNY,POINT:NAVAID:CRI:VOR/DME,POINT:NAVAID:CRI:VOR/DME:US:NY:CANARSIE
CRL,VOR/DME,295,CARLETON,CARLETON,MI,US,AGL,42.04802655,-83.45757291,115.7,104X,OPERATIONAL RESTRICTED,Y,Y,ZOB,ZOB,POINT:NAVAID:CRL:VOR/DME,POINT:NAVAID:CRL:VOR/DME:US:MI:CARLETON
CRN,NDB,296,CAIRN MOUNTAIN,SPARREVOHN,AK,US,AAL,61.10175,-155.56864722,281,,OPERATIONAL IFR,Y,Y,ZAN,ZAN,POINT:NAVAID:CRN:NDB,POINT:NAVAID:CRN:NDB:US:AK:SPARREVOHN
CRP,VORTAC,297,CORPUS CHRISTI,CORPUS CHRISTI,TX,US,ASW,27.90376591,-97.44488133,115.5,102X,OPERATIONAL RESTRICTED,Y,Y,ZHU,ZHU,POINT:NAVAID:CRP:VORTAC,POINT:NAVAID:CRP:VORTAC:US:TX:CORPUS_CHRISTI
CS,NDB,298,FENIX,COLUMBUS,GA,US,ASO,32.45193808,-85.04197333,355,,OPERATIONAL IFR,Y,Y,,,POINT:NAVAID:CS:NDB,POINT:NAVAID:CS:NDB:US:GA:COLUMBUS
CSG,TACAN,299,COLUMBUS,COLUMBUS,GA,US,ASO,32.61525219,-85.01762886,117.1,118X,OPERATIONAL IFR,Y,Y,ZTL,ZTL,POINT:NAVAID:CSG:TACAN,POINT:NAVAID:CSG:TACAN:US:GA:COLUMBUS
CSI,VORTAC,300,CENTER POINT,KERRVILLE,TX,US,ASW,29.92235447,-99.21448569,117.5,122X,OPERATIONAL IFR,Y,Y,ZHU,ZHU,POINT:NAVAID:CSI:VORTAC,POINT:NAVAID:CSI:VORTAC:US:TX:KERRVILLE
CSN,VORTAC,301,CASANOVA,CASANOVA,VA,US,AEA,38.64120213,-77.86549941,116.3,110X,OPERATIONAL RESTRICTED,Y,Y,ZDC,ZDC,POINT:NAVAID:CSN:VORTAC,POINT:NAVAID:CSN:VORTAC:US:VA:CASANOVA
CSS,NDB,302,COURT HOUSE,WASHINGTON COURT HOUSE,OH,US,AGL,39.60089025,-83.39159236,414,,OPERATIONAL IFR,Y,Y,ZID,ZID,POINT:NAVAID:CSS:NDB,POINT:NAVAID:CSS:NDB:US:OH:WASHINGTON_COURT_HOUSE
CSX,DME,303,CARDINAL,ST LOUIS,MO,US,ACE,38.75274441,-90.36095961,116.45,111Y,OPERATIONAL RESTRICTED,Y,Y,ZKC,ZKC,POINT:NAVAID:CSX:DME,POINT:NAVAID:CSX:DME:US:MO:ST_LOUIS
CSZ,NDB,304,CROSSROADS,ATHENS,TX,US,ASW,32.06349638,-95.95762083,215,,OPERATIONAL IFR,N,N,ZFW,ZFW,POINT:NAVAID:CSZ:NDB,POINT:NAVAID:CSZ:NDB:US:TX:ATHENS
CTB,VOR/DME,305,CUT BANK,CUT BANK,MT,US,ANM,48.56494852,-112.34325438,113.35,80Y,OPERATIONAL RESTRICTED,Y,Y,ZLC,ZLC,POINT:NAVAID:CTB:VOR/DME,POINT:NAVAID:CTB:VOR/DME:US:MT:CUT_BANK
CTF,VOR/DME,306,CHESTERFIELD,CHESTERFIELD,SC,US,ASO,34.65049805,-80.27491636,114.55,92Y,OPERATIONAL RESTRICTED,Y,Y,ZJX,ZJX,POINT:NAVAID:CTF:VOR/DME,POINT:NAVAID:CTF:VOR/DME:US:SC:CHESTERFIELD
CTR,VOR/DME,307,CHESTER,CHESTER,MA,US,ANE,42.29131861,-72.94939416,115.1,98X,OPERATIONAL RESTRICTED,Y,Y,ZBW,ZBW,POINT:NAVAID:CTR:VOR/DME,POINT:NAVAID:CTR:VOR/DME:US:MA:CHESTER
CTW,DME,308,NEWCOMERSTOWN,NEWCOMERSTOWN,OH,US,AGL,40.22920861,-81.47647666,111.8,55X,OPERATIONAL RESTRICTED,Y,Y,ZOB,ZOB,POINT:NAVAID:CTW:DME,POINT:NAVAID:CTW:DME:US:OH:NEWCOMERSTOWN
CTY,TACAN,309,CROSS CITY,CROSS CITY,FL,US,ASO,29.59900069,-83.048792,112,57X,OPERATIONAL IFR,Y,Y,ZJX,ZJX,POINT:NAVAID:CTY:TACAN,POINT:NAVAID:CTY:TACAN:US:FL:CROSS_CITY
CTZ,NDB,310,CLINTON,CLINTON,NC,US,ASO,34.97509483,-78.36193913,412,,OPERATIONAL IFR,Y,Y,ZDC,ZDC,POINT:NAVAID:CTZ:NDB,POINT:NAVAID:CTZ:NDB:US:NC:CLINTON
CUN,NDB,311,CHENA,FAIRBANKS,AK,US,AAL,64.83858402,-147.49507838,257,,OPERATIONAL IFR,Y,Y,ZAN,ZAN,POINT:NAVAID:CUN:NDB,POINT:NAVAID:CUN:NDB:US:AK:FAIRBANKS
CUS,VOR/DME,312,COLUMBUS,COLUMBUS,NM,US,ASW,31.8191005,-107.57449383,111.2,49X,OPERATIONAL RESTRICTED,Y,Y,ZAB,ZAB,POINT:NAVAID:CUS:VOR/DME,POINT:NAVAID:CUS:VOR/DME:US:NM:COLUMBUS
CUZ,VOR/DME,313,CUSTER COUNTY,BROKEN BOW,NE,US,ACE,41.4839755,-99.68904775,108.2,19X,OPERATIONAL IFR,Y,Y,ZDV,ZDV,POINT:NAVAID:CUZ:VOR/DME,POINT:NAVAID:CUZ:VOR/DME:US:NE:BROKEN_BOW
CV,NDB,314,CARLZ,CARLSBAD,NM,US,ASW,32.26679152,-104.33851213,402,,OPERATIONAL IFR,Y,Y,,,POINT:NAVAID:CV:NDB,POINT:NAVAID:CV:NDB:US:NM:CARLSBAD
CVA,VORTAC,315,DAVENPORT,DAVENPORT,IA,US,ACE,41.70854841,-90.48331366,113.8,85X,OPERATIONAL IFR,Y,Y,ZAU,ZAU,POINT:NAVAID:CVA:VORTAC,POINT:NAVAID:CVA:VORTAC:US:IA:DAVENPORT
CVC,DME,316,COVINGTON,ATLANTA,GA,US,ASO,33.631225,-83.84835,114.05,87Y,OPERATIONAL IFR,Y,Y,ZTL,ZTL,POINT:NAVAID:CVC:DME,POINT:NAVAID:CVC:DME:US:GA:ATLANTA
CVE,VOR/DME,317,COWBOY,DALLAS,TX,US,ASW,32.89031033,-96.90396691,116.2,109X,OPERATIONAL RESTRICTED,Y,Y,ZFW,ZFW,POINT:NAVAID:CVE:VOR/DME,POINT:NAVAID:CVE:VOR/DME:US:TX:DALLAS
CVG,TACAN,318,CINCINNATI,COVINGTON,KY,US,ASO,39.01598077,-84.70334633,117.3,120X,OPERATIONAL IFR,Y,Y,ZID,ZID,POINT:NAVAID:CVG:TACAN,POINT:NAVAID:CVG:TACAN:US:KY:COVINGTON
CVI,TACAN,319,COFIELD,COFIELD,NC,US,ASO,36.37291388,-76.87154472,114.6,93X,OPERATIONAL RESTRICTED,Y,Y,ZDC,ZDC,POINT:NAVAID:CVI:TACAN,POINT:NAVAID:CVI:TACAN:US:NC:COFIELD
CVO,VOR/DME,320,CORVALLIS,CORVALLIS,OR,US,ANM,44.49956536,-123.29366011,115.4,101X,OPERATIONAL RESTRICTED,Y,Y,ZSE,ZSE,POINT:NAVAID:CVO:VOR/DME,POINT:NAVAID:CVO:VOR/DME:US:OR:CORVALLIS
CVS,TACAN,321,CANNON,CLOVIS,NM,US,ASW,34.38058608,-103.32242413,111.6,53X,OPERATIONAL RESTRICTED,Y,Y,ZAB,ZAB,POINT:NAVAID:CVS:TACAN,POINT:NAVAID:CVS:TACAN:US:NM:CLOVIS
CVV,VOR/DME,322,PENN COVE,COUPEVILLE,WA,US,ANM,48.24469444,-122.72441666,117.2,119X,OPERATIONAL RESTRICTED,Y,Y,ZSE,ZSE,POINT:NAVAID:CVV:VOR/DME,POINT:NAVAID:CVV:VOR/DME:US:WA:COUPEVILLE
CW,NDB,323,MOSSY,LAKE CHARLES,LA,US,ASW,30.30663672,-93.19619697,418,,OPERATIONAL IFR,Y,Y,,,POINT:NAVAID:CW:NDB,POINT:NAVAID:CW:NDB:US:LA:LAKE_CHARLES
CWK,VORTAC,324,CENTEX,AUSTIN,TX,US,ASW,30.37855,-97.52984722,112.8,75X,OPERATIONAL RESTRICTED,Y,Y,ZHU,ZHU,POINT:NAVAID:CWK:VORTAC,POINT:NAVAID:CWK:VORTAC:US:TX:AUSTIN
CX,NDB,325,ALIBI,HOUSTON,TX,US,ASW,30.43207958,-95.47626608,281,,OPERATIONAL IFR,Y,Y,,,POINT:NAVAID:CX:NDB,POINT:NAVAID:CX:NDB:US:TX:HOUSTON
CXR,DME,326,CHARDON,CHARDON,OH,US,AGL,41.51692441,-81.16317922,112.7,74X,OPERATIONAL RESTRICTED,Y,Y,ZOB,ZOB,POINT:NAVAID:CXR:DME,POINT:NAVAID:CXR:DME:US:OH:CHARDON
CYN,VORTAC,327,COYLE,COYLE,NJ,US,AEA,39.81733791,-74.43162572,113.4,81X,OPERATIONAL RESTRICTED,Y,Y,,ZNY,POINT:NAVAID:CYN:VORTAC,POINT:NAVAID:CYN:VORTAC:US:NJ:COYLE
CYR,NDB,328,CAIDY,CAIRO,GA,US,ASO,30.88816916,-84.1593308,338,,OPERATIONAL IFR,Y,Y,ZJX,ZJX,POINT:NAVAID:CYR:NDB,POINT:NAVAID:CYR:NDB:US:GA:CAIRO
CYS,VORTAC,329,CHEYENNE,CHEYENNE,WY,US,ANM,41.21096702,-104.77291497,113.1,78X,OPERATIONAL RESTRICTED,Y,Y,ZDV,ZDV,POINT:NAVAID:CYS:VORTAC,POINT:NAVAID:CYS:VORTAC:US:WY:CHEYENNE
CYY,DME,330,CYPRESS,NAPLES,FL,US,ASO,26.15342747,-81.77810319,108.6,23X,OPERATIONAL RESTRICTED,Y,Y,ZMA,ZMA,POINT:NAVAID:CYY:DME,POINT:NAVAID:CYY:DME:US:FL:NAPLES
CZF,DME,331,CAPE ROMANZOF,CAPE ROMANZOF,AK,US,AAL,61.77601433,-166.04343716,116.75,114Y,OPERATIONAL RESTRICTED,Y,Y,ZAN,ZAN,POINT:NAVAID:CZF:DME,POINT:NAVAID:CZF:DME:US:AK:CAPE_ROMANZOF
CZF,NDB,332,CAPE ROMANZOF,CAPE ROMANZOF,AK,US,AAL,61.79037827,-165.9700603,275,,OPERATIONAL RESTRICTED,Y,Y,ZAN,ZAN,POINT:NAVAID:CZF:NDB,POINT:NAVAID:CZF:NDB:US:AK:CAPE_ROMANZOF
CZI,VOR/DME,333,CRAZY WOMAN,CRAZY WOMAN,WY,US,ANM,43.99972777,-106.43573055,117.3,120X,OPERATIONAL RESTRICTED,Y,Y,ZDV,ZDV,POINT:NAVAID:CZI:VOR/DME,POINT:NAVAID:CZI:VOR/DME:US:WY:CRAZY_WOMAN
CZQ,TACAN,334,CLOVIS,FRESNO,CA,US,AWP,36.88432222,-119.81514444,112.9,76X,OPERATIONAL RESTRICTED,Y,Y,ZOA,ZOA,POINT:NAVAID:CZQ:TACAN,POINT:NAVAID:CZQ:TACAN:US:CA:FRESNO
DAG,VORTAC,335,DAGGETT,DAGGETT,CA,US,AWP,34.96245694,-116.57816638,113.2,79X,OPERATIONAL IFR,Y,Y,ZLA,ZLA,POINT:NAVAID:DAG:VORTAC,POINT:NAVAID:DAG:VORTAC:US:CA:DAGGETT
DAL,VOT,336,DALLAS,DALLAS,TX,US,ASW,32.855175,-96.8472,113.3,,OPERATIONAL IFR,Y,Y,,,POINT:NAVAID:DAL:VOT,POINT:NAVAID:DAL:VOT:US:TX:DALLAS
DAS,VORTAC,337,DAISETTA,DAISETTA,TX,US,ASW,30.18971172,-94.64498444,116.9,116X,OPERATIONAL RESTRICTED,Y,Y,ZHU,ZHU,POINT:NAVAID:DAS:VORTAC,POINT:NAVAID:DAS:VORTAC:US:TX:DAISETTA
DAY,VOT,338,DAYTON J M COX-DAY,DAYTON,OH,US,AGL,39.8980788,-84.21523202,111,,OPERATIONAL IFR,N,Y,,,POINT:NAVAID:DAY:VOT,POINT:NAVAID:DAY:VOT:US:OH:DAYTON
DBL,VOR/DME,339,RED TABLE,EAGLE,CO,US,ANM,39.43934527,-106.89468027,113,77X,OPERATIONAL RESTRICTED,Y,Y,ZDV,ZDV,POINT:NAVAID:DBL:VOR/DME,POINT:NAVAID:DBL:VOR/DME:US:CO:EAGLE
DBN,VORTAC,340,DUBLIN,DUBLIN,GA,US,ASO,32.56346013,-82.83004477,113.1,78X,OPERATIONAL RESTRICTED,Y,Y,ZTL,ZTL,POINT:NAVAID:DBN:VORTAC,POINT:NAVAID:DBN:VORTAC:US:GA:DUBLIN
DBQ,VORTAC,341,DUBUQUE,DUBUQUE,IA,US,ACE,42.40146908,-90.709078,115.8,105X,OPERATIONAL RESTRICTED,Y,Y,ZAU,ZAU,POINT:NAVAID:DBQ:VORTAC,POINT:NAVAID:DBQ:VORTAC:US:IA:DUBUQUE
DBS,VORTAC,342,DUBOIS,DUBOIS,ID,US,ANM,44.08885333,-112.20934333,116.9,116X,OPERATIONAL RESTRICTED,Y,Y,ZLC,ZLC,POINT:NAVAID:DBS:VORTAC,POINT:NAVAID:DBS:VORTAC:US:ID:DUBOIS
DCA,VOR/DME,343,WASHINGTON,WASHINGTON,DC,US,AEA,38.85945277,-77.03643611,111,47X,OPERATIONAL RESTRICTED,Y,Y,ZDC,ZDC,POINT:NAVAID:DCA:VOR/DME,POINT:NAVAID:DCA:VOR/DME:US:DC:WASHINGTON
DCU,DME,344,DECATUR,DECATUR,AL,US,ASO,34.64831455,-86.93951275,112.8,75X,OPERATIONAL IFR,Y,Y,ZTL,ZME,POINT:NAVAID:DCU:DME,POINT:NAVAID:DCU:DME:US:AL:DECATUR
DD,NDB,345,COBBS,COLUMBUS,OH,US,AGL,39.74297013,-83.02027402,253,,OPERATIONAL IFR,Y,Y,,,POINT:NAVAID:DD:NDB,POINT:NAVAID:DD:NDB:US:OH:COLUMBUS
DDC,VORTAC,346,DODGE CITY,DODGE CITY,KS,US,ACE,37.85056075,-100.00563733,108.2,19X,OPERATIONAL IFR,Y,Y,ZKC,ZKC,POINT:NAVAID:DDC:VORTAC,POINT:NAVAID:DDC:VORTAC:US:KS:DODGE_CITY
DDD,DME,347,PORT CITY,MUSCATINE,IA,US,ACE,41.36629944,-91.14927925,116.5,112X,OPERATIONAL RESTRICTED,Y,Y,ZAU,ZAU,POINT:NAVAID:DDD:DME,POINT:NAVAID:DDD:DME:US:IA:MUSCATINE
DDP,NDB,348,DORADO,SAN JUAN,PR,US,ASO,18.46827861,-66.41239222,391,,OPERATIONAL IFR,Y,Y,ZSU,ZSU,POINT:NAVAID:DDP:NDB,POINT:NAVAID:DDP:NDB:US:PR:SAN_JUAN
DDY,VOR/DME,349,MUDDY MOUNTAIN,CASPER,WY,US,ANM,43.09085638,-106.27702444,116.2,109X,OPERATIONAL RESTRICTED,Y,Y,ZDV,ZDV,POINT:NAVAID:DDY:VOR/DME,POINT:NAVAID:DDY:VOR/DME:US:WY:CASPER
DE,NDB,350,ELWIN,DECATUR,IL,US,AGL,39.79045072,-88.95388813,275,,OPERATIONAL IFR,Y,Y,,,POINT:NAVAID:DE:NDB,POINT:NAVAID:DE:NDB:US:IL:DECATUR
DEC,FAN_MARKER,351,AKLEY,DECATUR,IL,US,AGL,39.87637133,-88.76467866,,,OPERATIONAL IFR,Y,Y,ZAU,ZAU,POINT:NAVAID:DEC:FAN_MARKER,POINT:NAVAID:DEC:FAN_MARKER:US:IL:DECATUR
DEL,VOR/DME,352,DELICIAS,LAS DELICIAS,,MX,,28.21415555,-105.44856666,113.5,82X,OPERATIONAL IFR,N,Y,,,POINT:NAVAID:DEL:VOR/DME,POINT:NAVAID:DEL:VOR/DME:MX::LAS_DELICIAS
DEN,VOR/DME,353,DENVER,DENVER,CO,US,ANM,39.81251405,-104.66074008,117.9,126X,OPERATIONAL RESTRICTED,Y,Y,ZDV,ZDV,POINT:NAVAID:DEN:VOR/DME,POINT:NAVAID:DEN:VOR/DME:US:CO:DENVER
DEN,VOT,354,DENVER,DENVER,CO,US,ANM,39.870467,-104.65483177,110,,OPERATIONAL IFR,Y,Y,,,POINT:NAVAID:DEN:VOT,POINT:NAVAID:DEN:VOT:US:CO:DENVER
DET,VOT,355,DETROIT CITY,DETROIT,MI,US,AGL,42.40503722,-83.01630944,111.6,,OPERATIONAL IFR,N,Y,,,POINT:NAVAID:DET:VOT,POINT:NAVAID:DET:VOT:US:MI:DETROIT
DGD,VORTAC,356,DOGWOOD,DOGWOOD,MO,US,ACE,37.02346916,-92.87692277,109.4,31X,OPERATIONAL RESTRICTED,Y,Y,ZKC,ZKC,POINT:NAVAID:DGD:VORTAC,POINT:NAVAID:DGD:VORTAC:US:MO:DOGWOOD
DGG,NDB/DME,357,RED DOG,RED DOG,AK,US,AAL,68.03248611,-162.90416944,429,23X,OPERATIONAL IFR,Y,N,ZAN,ZAN,POINT:NAVAID:DGG:NDB/DME,POINT:NAVAID:DGG:NDB/DME:US:AK:RED_DOG
DHK,TACAN,358,RANDOLPH,UNIVERSAL CITY,TX,US,ASW,29.53695,-98.26781388,109.9,36X,OPERATIONAL RESTRICTED,Y,Y,ZHU,ZHU,POINT:NAVAID:DHK:TACAN,POINT:NAVAID:DHK:TACAN:US:TX:UNIVERSAL_CITY
DHP,VORTAC,359,DOLPHIN,MIAMI,FL,US,ASO,25.79996275,-80.34903508,113.9,86X,OPERATIONAL RESTRICTED,Y,Y,ZMA,ZMA,POINT:NAVAID:DHP:VORTAC,POINT:NAVAID:DHP:VORTAC:US:FL:MIAMI
DHT,VORTAC,360,DALHART,DALHART,TX,US,ASW,36.09145652,-102.54464163,112,57X,OPERATIONAL IFR,Y,Y,ZAB,ZAB,POINT:NAVAID:DHT:VORTAC,POINT:NAVAID:DHT:VORTAC:US:TX:DALHART
DIK,VORTAC,361,DICKINSON,DICKINSON,ND,US,AGL,46.86003886,-102.77349983,112.9,76X,OPERATIONAL RESTRICTED,Y,Y,ZMP,ZMP,POINT:NAVAID:DIK:VORTAC,POINT:NAVAID:DIK:VORTAC:US:ND:DICKINSON
DJB,VOR/DME,362,DRYER,CLEVELAND,OH,US,AGL,41.35806497,-82.16196869,113.6,83X,OPERATIONAL RESTRICTED,Y,Y,ZOB,ZOB,POINT:NAVAID:DJB:VOR/DME,POINT:NAVAID:DJB:VOR/DME:US:OH:CLEVELAND
DJN,NDB,363,DELTA JUNCTION,DELTA JUNCTION,AK,US,AAL,64.02345638,-145.68682666,347,,OPERATIONAL IFR,Y,Y,ZAN,ZAN,POINT:NAVAID:DJN:NDB,POINT:NAVAID:DJN:NDB:US:AK:DELTA_JUNCTION
DKK,DME,364,DUNKIRK,DUNKIRK,NY,US,AEA,42.4904,-79.27410277,116.2,109X,OPERATIONAL RESTRICTED,Y,Y,ZOB,ZOB,POINT:NAVAID:DKK:DME,POINT:NAVAID:DKK:DME:US:NY:DUNKIRK
DL,NDB,365,PYKLA,DULUTH,MN,US,AGL,46.84571897,-92.35493738,379,,OPERATIONAL IFR,Y,Y,ZMP,ZMP,POINT:NAVAID:DL:NDB,POINT:NAVAID:DL:NDB:US:MN:DULUTH
DLF,VORTAC,366,LAUGHLIN,DEL RIO,TX,US,ASW,29.36089166,-100.771725,114.4,91X,OPERATIONAL RESTRICTED,Y,Y,ZHU,ZHU,POINT:NAVAID:DLF:VORTAC,POINT:NAVAID:DLF:VORTAC:US:TX:DEL_RIO
DLG,VOR/DME,367,DILLINGHAM,DILLINGHAM,AK,US,AAL,58.99423375,-158.55221955,116.4,111X,OPERATIONAL IFR,Y,Y,ZAN,ZAN,POINT:NAVAID:DLG:VOR/DME,POINT:NAVAID:DLG:VOR/DME:US:AK:DILLINGHAM
DLH,VORTAC,368,DULUTH,DULUTH,MN,US,AGL,46.8021638,-92.20286919,112.6,73X,OPERATIONAL IFR,Y,Y,ZMP,ZMP,POINT:NAVAID:DLH:VORTAC,POINT:NAVAID:DLH:VORTAC:US:MN:DULUTH
DLL,VORTAC,369,DELLS,BARABOO,WI,US,AGL,43.55083561,-89.76362247,117,117X,OPERATIONAL RESTRICTED,Y,Y,ZAU,ZAU,POINT:NAVAID:DLL:VORTAC,POINT:NAVAID:DLL:VORTAC:US:WI:BARABOO
DLN,VOR/DME,370,DILLON,DILLON,MT,US,ANM,45.24857391,-112.5471298,113,77X,OPERATIONAL RESTRICTED,Y,Y,ZLC,ZLC,POINT:NAVAID:DLN:VOR/DME,POINT:NAVAID:DLN:VOR/DME:US:MT:DILLON
DMA,TACAN,371,DAVIS MONTHAN,TUCSON,AZ,US,AWP,32.15991583,-110.88090944,117.6,123X,OPERATIONAL RESTRICTED,Y,Y,ZAB,ZAB,POINT:NAVAID:DMA:TACAN,POINT:NAVAID:DMA:TACAN:US:AZ:TUCSON
DMN,VORTAC,372,DEMING,DEMING,NM,US,ASW,32.27555141,-107.60550127,108.6,23X,OPERATIONAL RESTRICTED,Y,Y,ZAB,ZAB,POINT:NAVAID:DMN:VORTAC,POINT:NAVAID:DMN:VORTAC:US:NM:DEMING
DN,NDB,373,JULIP,DANVILLE,IL,US,AGL,40.28959036,-87.52994391,332,,OPERATIONAL IFR,Y,Y,,,POINT:NAVAID:DN:NDB,POINT:NAVAID:DN:NDB:US:IL:DANVILLE
DNI,NDB,374,DENISON,SHERMAN DENISON,TX,US,ASW,33.82649911,-96.66889291,341,,OPERATIONAL IFR,Y,Y,ZFW,ZFW,POINT:NAVAID:DNI:NDB,POINT:NAVAID:DNI:NDB:US:TX:SHERMAN_DENISON
DNJ,VOR/DME,375,DONNELLY,MC CALL,ID,US,ANM,44.76711258,-116.20626575,116.2,109X,OPERATIONAL RESTRICTED,Y,Y,ZLC,ZLC,POINT:NAVAID:DNJ:VOR/DME,POINT:NAVAID:DNJ:VOR/DME:US:ID:MC_CALL
DNV,TACAN,376,DANVILLE,DANVILLE,IL,US,AGL,40.29376627,-87.55726016,111,47X,OPERATIONAL IFR,Y,Y,ZAU,ZAU,POINT:NAVAID:DNV:TACAN,POINT:NAVAID:DNV:TACAN:US:IL:DANVILLE
DNW,VOR/DME,377,DUNOIR,DUNOIR,WY,US,ANM,43.82827805,-110.33547444,117.2,119X,OPERATIONAL RESTRICTED,Y,Y,ZLC,ZLC,POINT:NAVAID:DNW:VOR/DME,POINT:NAVAID:DNW:VOR/DME:US:WY:DUNOIR
DNY,VOR/DME,378,DELANCEY,DELANCEY,NY,US,AEA,42.17828055,-74.95694055,112.1,58X,OPERATIONAL IFR,Y,Y,ZBW,ZBW,POINT:NAVAID:DNY:VOR/DME,POINT:NAVAID:DNY:VOR/DME:US:NY:DELANCEY
DOB,TACAN,379,DOBBINS,MARIETTA,GA,US,ASO,33.91465277,-84.50731111,113,77X,OPERATIONAL RESTRICTED,Y,N,ZTL,ZTL,POINT:NAVAID:DOB:TACAN,POINT:NAVAID:DOB:TACAN:US:GA:MARIETTA
DOV,TACAN,380,DOVER,DOVER,DE,US,AEA,39.1324,-75.46740833,110,37X,OPERATIONAL IFR,Y,Y,,ZDC,POINT:NAVAID:DOV:TACAN,POINT:NAVAID:DOV:TACAN:US:DE:DOVER
DPA,VOR/DME,381,DUPAGE,CHICAGO/WEST CHICAGO,IL,US,AGL,41.89037147,-88.35017747,114.55,92Y,OPERATIONAL RESTRICTED,Y,Y,ZAU,ZAU,POINT:NAVAID:DPA:VOR/DME,POINT:NAVAID:DPA:VOR/DME:US:IL:CHICAGO/WEST_CHICAGO
DPK,VOR/DME,382,DEER PARK,DEER PARK,NY,US,AEA,40.79176669,-73.30367738,117.7,124X,OPERATIONAL RESTRICTED,Y,Y,ZNY,ZNY,POINT:NAVAID:DPK:VOR/DME,POINT:NAVAID:DPK:VOR/DME:US:NY:DEER_PARK
DPR,VOR/DME,383,DUPREE,DUPREE,SD,US,AGL,45.07817527,-101.71507138,116.8,115X,OPERATIONAL IFR,Y,Y,ZMP,ZMP,POINT:NAVAID:DPR:VOR/DME,POINT:NAVAID:DPR:VOR/DME:US:SD:DUPREE
DPY,NDB,384,DEER PARK,DEER PARK,WA,US,ANM,47.96773886,-117.42632875,365,,OPERATIONAL IFR,Y,Y,ZSE,ZSE,POINT:NAVAID:DPY:NDB,POINT:NAVAID:DPY:NDB:US:WA:DEER_PARK
DQN,VOR/DME,385,DAYTON,DAYTON,OH,US,AGL,40.0164443,-84.39689811,114.5,92X,OPERATIONAL RESTRICTED,Y,Y,ZID,ZID,POINT:NAVAID:DQN:VOR/DME,POINT:NAVAID:DQN:VOR/DME:US:OH:DAYTON
DQO,VORTAC,386,DUPONT,WILMINGTON,DE,US,AEA,39.67814013,-75.60708558,114,87X,OPERATIONAL RESTRICTED,Y,Y,ZDC,ZDC,POINT:NAVAID:DQO:VORTAC,POINT:NAVAID:DQO:VORTAC:US:DE:WILMINGTON
DR,NDB,387,KOTTI,DEL RIO,TX,US,ASW,29.44269444,-100.992275,335,,OPERATIONAL IFR,Y,Y,,,POINT:NAVAID:DR:NDB,POINT:NAVAID:DR:NDB:US:TX:DEL_RIO
DRK,VORTAC,388,DRAKE,PRESCOTT,AZ,US,AWP,34.70255225,-112.48034163,114.1,88X,OPERATIONAL RESTRICTED,Y,Y,ZAB,ZAB,POINT:NAVAID:DRK:VORTAC,POINT:NAVAID:DRK:VORTAC:US:AZ:PRESCOTT
DRO,VOR/DME,389,DURANGO,DURANGO,CO,US,ANM,37.15325975,-107.74962591,116.55,112Y,OPERATIONAL RESTRICTED,Y,Y,ZDV,ZDV,POINT:NAVAID:DRO:VOR/DME,POINT:NAVAID:DRO:VOR/DME:US:CO:DURANGO
DSD,VORTAC,390,DESCHUTES,REDMOND,OR,US,ANM,44.25276077,-121.30355233,117.6,123X,OPERATIONAL RESTRICTED,Y,Y,ZSE,ZSE,POINT:NAVAID:DSD:VORTAC,POINT:NAVAID:DSD:VORTAC:US:OR:REDMOND
DSM,VORTAC,391,DES MOINES,DES MOINES,IA,US,ACE,41.4376248,-93.64855794,117.5,122X,OPERATIONAL RESTRICTED,Y,Y,ZMP,ZMP,POINT:NAVAID:DSM:VORTAC,POINT:NAVAID:DSM:VORTAC:US:IA:DES_MOINES
DSM,VOT,392,DES MOINES,DES MOINES,IA,US,ACE,41.53899808,-93.65742563,109.2,,OPERATIONAL IFR,Y,Y,,,POINT:NAVAID:DSM:VOT,POINT:NAVAID:DSM:VOT:US:IA:DES_MOINES
DT,NDB,393,PINCK,DENTON,TX,US,ASW,33.28310141,-97.19626219,257,,OPERATIONAL IFR,Y,Y,,,POINT:NAVAID:DT:NDB,POINT:NAVAID:DT:NDB:US:TX:DENTON
DTA,VORTAC,394,DELTA,DELTA,UT,US,ANM,39.30226216,-112.50555938,116.1,108X,OPERATIONAL RESTRICTED,Y,Y,ZLC,ZLC,POINT:NAVAID:DTA:VORTAC,POINT:NAVAID:DTA:VORTAC:US:UT:DELTA
DTL,VOR/DME,395,DETROIT LAKES,DETROIT LAKES,MN,US,AGL,46.82552372,-95.88732269,111.2,49X,OPERATIONAL IFR,Y,Y,ZMP,ZMP,POINT:NAVAID:DTL:VOR/DME,POINT:NAVAID:DTL:VOR/DME:US:MN:DETROIT_LAKES
DTW,VOT,396,DETROIT MET WAYNE,DETROIT,MI,US,AGL,42.23166666,-83.35833333,109.8,,OPERATIONAL IFR,N,Y,,,POINT:NAVAID:DTW:VOT,POINT:NAVAID:DTW:VOT:US:MI:DETROIT
DUG,VORTAC,397,DOUGLAS,DOUGLAS BISBEE,AZ,US,AWP,31.47267361,-109.60205363,108.8,25X,OPERATIONAL RESTRICTED,Y,Y,ZAB,ZAB,POINT:NAVAID:DUG:VORTAC,POINT:NAVAID:DUG:VORTAC:US:AZ:DOUGLAS_BISBEE
DUT,NDB/DME,398,DUTCH HARBOR,UNALASKA,AK,US,AAL,53.90514602,-166.54786775,283,86X,OPERATIONAL RESTRICTED,Y,Y,ZAN,ZAN,POINT:NAVAID:DUT:NDB/DME,POINT:NAVAID:DUT:NDB/DME:US:AK:UNALASKA
DVC,VORTAC,399,DOVE CREEK,DOVE CREEK,CO,US,ANM,37.80873972,-108.93127388,114.6,93X,OPERATIONAL RESTRICTED,Y,Y,ZDV,ZDV,POINT:NAVAID:DVC:VORTAC,POINT:NAVAID:DVC:VORTAC:US:CO:DOVE_CREEK
DVK,NDB,400,GOODALL,DANVILLE,KY,US,ASO,37.57642277,-84.76403333,311,,OPERATIONAL IFR,Y,Y,,ZID,POINT:NAVAID:DVK:NDB,POINT:NAVAID:DVK:NDB:US:KY:DANVILLE
DVL,DME,401,DEVILS LAKE,DEVILS LAKE,ND,US,AGL,48.1152213,-98.91251575,114.75,94Y,OPERATIONAL IFR,Y,Y,ZMP,ZMP,POINT:NAVAID:DVL:DME,POINT:NAVAID:DVL:DME:US:ND:DEVILS_LAKE
DVN,VOT,402,DAVENPORT MUNICIPAL,DAVENPORT,IA,US,ACE,41.61221388,-90.58496388,111.8,,OPERATIONAL IFR,Y,Y,,,POINT:NAVAID:DVN:VOT,POINT:NAVAID:DVN:VOT:US:IA:DAVENPORT
DVV,VORTAC,403,MILE HIGH,DENVER,CO,US,ANM,39.89468941,-104.624335,114.7,94X,OPERATIONAL RESTRICTED,Y,Y,ZDV,ZDV,POINT:NAVAID:DVV:VORTAC,POINT:NAVAID:DVV:VORTAC:US:CO:DENVER
DWG,TACAN,404,WARRINGTON,VALPARAISO,FL,US,ASO,30.47823888,-86.52085833,134.5,2X,OPERATIONAL RESTRICTED,Y,Y,ZJX,ZJX,POINT:NAVAID:DWG:TACAN,POINT:NAVAID:DWG:TACAN:US:FL:VALPARAISO
DWN,DME,405,DARWIN,DARWIN,MN,US,AGL,45.0874625,-94.45384972,109,27X,OPERATIONAL IFR,Y,Y,ZMP,ZMP,POINT:NAVAID:DWN:DME,POINT:NAVAID:DWN:DME:US:MN:DARWIN
DXO,VOR/DME,406,DETROIT,DETROIT,MI,US,AGL,42.21313622,-83.36666327,113.4,81X,OPERATIONAL IFR,Y,Y,ZOB,ZOB,POINT:NAVAID:DXO:VOR/DME,POINT:NAVAID:DXO:VOR/DME:US:MI:DETROIT
DYB,NDB,407,DORCHESTER COUNTY,SUMMERVILLE,SC,US,ASO,33.0614578,-80.27718622,365,,OPERATIONAL IFR,Y,Y,ZJX,ZJX,POINT:NAVAID:DYB:NDB,POINT:NAVAID:DYB:NDB:US:SC:SUMMERVILLE
DYO,NDB,408,SMUTO,RUTLAND,VT,US,ANE,43.706144,-72.95660341,221,,OPERATIONAL RESTRICTED,Y,Y,ZBW,ZBW,POINT:NAVAID:DYO:NDB,POINT:NAVAID:DYO:NDB:US:VT:RUTLAND
DYR,TACAN,409,DYERSBURG,DYERSBURG,TN,US,ASO,36.01854966,-89.31769163,116.8,115X,OPERATIONAL IFR,Y,Y,ZME,ZME,POINT:NAVAID:DYR:TACAN,POINT:NAVAID:DYR:TACAN:US:TN:DYERSBURG
DYS,TACAN,410,DYESS,ABILENE,TX,US,ASW,32.41851111,-99.85705,133.6,63X,OPERATIONAL RESTRICTED,Y,Y,ZFW,ZFW,POINT:NAVAID:DYS:TACAN,POINT:NAVAID:DYS:TACAN:US:TX:ABILENE
DYY,DME,411,DYER,DYER,NV,US,AWP,37.6117663,-118.00816888,114.05,87Y,OPERATIONAL RESTRICTED,Y,Y,ZLC,ZLC,POINT:NAVAID:DYY:DME,POINT:NAVAID:DYY:DME:US:NV:DYER
EAR,VOR,412,KEARNEY,KEARNEY,NE,US,ACE,40.72560386,-99.00512536,111.2,,OPERATIONAL IFR,Y,Y,ZMP,ZMP,POINT:NAVAID:EAR:VOR,POINT:NAVAID:EAR:VOR:US:NE:KEARNEY
EAT,VOR/DME,413,WENATCHEE,WENATCHEE,WA,US,ANM,47.39969238,-120.21082744,114.35,90Y,OPERATIONAL RESTRICTED,Y,Y,ZSE,ZSE,POINT:NAVAID:EAT:VOR/DME,POINT:NAVAID:EAT:VOR/DME:US:WA:WENATCHEE
EAU,VORTAC,414,EAU CLAIRE,EAU CLAIRE,WI,US,AGL,44.89767002,-91.47853497,113.65,83Y,OPERATIONAL RESTRICTED,Y,Y,ZMP,ZMP,POINT:NAVAID:EAU:VORTAC,POINT:NAVAID:EAU:VORTAC:US:WI:EAU_CLAIRE
ECB,DME,415,NEWCOMBE,NEWCOMBE,KY,US,ASO,38.1583625,-82.91005472,110.4,41X,OPERATIONAL IFR,Y,Y,ZID,ZID,POINT:NAVAID:ECB:DME,POINT:NAVAID:ECB:DME:US:KY:NEWCOMBE
ECG,VOR/DME,416,ELIZABETH CITY,ELIZABETH CITY,NC,US,ASO,36.25757308,-76.17559775,115.75,104Y,OPERATIONAL RESTRICTED,Y,Y,ZDC,ZDC,POINT:NAVAID:ECG:VOR/DME,POINT:NAVAID:ECG:VOR/DME:US:NC:ELIZABETH_CITY
ECH,VOT,417,KETCHIKAN,KETCHIKAN,AK,US,AAL,55.35678161,-131.70923172,111,,OPERATIONAL IFR,Y,Y,,,POINT:NAVAID:ECH:VOT,POINT:NAVAID:ECH:VOT:US:AK:KETCHIKAN
ECK,TACAN,418,PECK,PECK,MI,US,AGL,43.25588555,-82.71792944,114,87X,OPERATIONAL IFR,Y,Y,ZOB,ZOB,POINT:NAVAID:ECK:TACAN,POINT:NAVAID:ECK:TACAN:US:MI:PECK
ECS,VOR,419,NEWCASTLE,NEWCASTLE,WY,US,ANM,43.88112802,-104.30777097,108.2,,OPERATIONAL RESTRICTED,Y,Y,ZDV,ZDV,POINT:NAVAID:ECS:VOR,POINT:NAVAID:ECS:VOR:US:WY:NEWCASTLE
EDF,TACAN,420,ELMENDORF,ANCHORAGE,AK,US,AAL,61.25500833,-149.769175,113.4,81X,OPERATIONAL RESTRICTED,Y,Y,ZAN,ZAN,POINT:NAVAID:EDF:TACAN,POINT:NAVAID:EDF:TACAN:US:AK:ANCHORAGE
EDN,VOR,421,ENTERPRISE,ENTERPRISE,AL,US,ASO,31.29637222,-85.90273611,116.6,,OPERATIONAL IFR,Y,Y,ZJX,ZJX,POINT:NAVAID:EDN:VOR,POINT:NAVAID:EDN:VOR:US:AL:ENTERPRISE
EDW,VORTAC,422,EDWARDS,EDWARDS,CA,US,AWP,34.98236277,-117.73260833,116.4,111X,OPERATIONAL RESTRICTED,Y,Y,ZLA,ZLA,POINT:NAVAID:EDW:VORTAC,POINT:NAVAID:EDW:VORTAC:US:CA:EDWARDS
EEA,DME,423,EUREKA,EUREKA,NV,US,AWP,39.47986944,-115.99185555,114.5,92X,OPERATIONAL IFR,Y,Y,ZLA,ZLA,POINT:NAVAID:EEA:DME,POINT:NAVAID:EEA:DME:US:NV:EUREKA
EED,VORTAC,424,NEEDLES,NEEDLES,CA,US,AWP,34.76600416,-114.47410416,115.2,99X,OPERATIONAL RESTRICTED,Y,Y,ZLA,ZLA,POINT:NAVAID:EED:VORTAC,POINT:NAVAID:EED:VORTAC:US:CA:NEEDLES
EEF,NDB,425,ELEPHANT,SISTERS ISLAND,AK,US,AAL,58.17096638,-135.2579175,391,,OPERATIONAL IFR,Y,Y,ZAN,ZAN,POINT:NAVAID:EEF:NDB,POINT:NAVAID:EEF:NDB:US:AK:SISTERS_ISLAND
EEN,DME,426,KEENE,KEENE,NH,US,ANE,42.79427777,-72.29177777,114.35,90Y,OPERATIONAL RESTRICTED,Y,Y,ZBW,ZBW,POINT:NAVAID:EEN:DME,POINT:NAVAID:EEN:DME:US:NH:KEENE
EFD,TACAN,427,ELLINGTON,HOUSTON,TX,US,ASW,29.60595833,-95.15965225,109.4,31X,OPERATIONAL RESTRICTED,Y,Y,ZHU,ZHU,POINT:NAVAID:EFD:TACAN,POINT:NAVAID:EFD:TACAN:US:TX:HOUSTON
EHF,VORTAC,428,SHAFTER,BAKERSFIELD,CA,US,AWP,35.48455436,-119.09729363,115.4,101X,OPERATIONAL RESTRICTED,Y,Y,ZLA,ZLA,POINT:NAVAID:EHF:VORTAC,POINT:NAVAID:EHF:VORTAC:US:CA:BAKERSFIELD
EHK,VOR/DME,429,ENOCH,CEDAR CITY,UT,US,ANM,37.78733,-113.06823055,117.3,120X,OPERATIONAL RESTRICTED,Y,Y,ZLC,ZLC,POINT:NAVAID:EHK:VOR/DME,POINT:NAVAID:EHK:VOR/DME:US:UT:CEDAR_CITY
EHM,NDB/DME,430,CAPE NEWENHAM,CAPE NEWENHAM,AK,US,AAL,58.65602222,-162.07374444,385,18Y,OPERATIONAL IFR,Y,Y,ZAN,ZAN,POINT:NAVAID:EHM:NDB/DME,POINT:NAVAID:EHM:NDB/DME:US:AK:CAPE_NEWENHAM
EIC,VORTAC,431,BELCHER,SHREVEPORT,LA,US,ASW,32.77136472,-93.80992916,117.4,121X,OPERATIONAL IFR,Y,Y,ZFW,ZFW,POINT:NAVAID:EIC:VORTAC,POINT:NAVAID:EIC:VORTAC:US:LA:SHREVEPORT
EIL,TACAN,432,EIELSON,FAIRBANKS,AK,US,AAL,64.65379444,-147.09397777,115.1,98X,OPERATIONAL RESTRICTED,Y,Y,ZAN,ZAN,POINT:NAVAID:EIL:TACAN,POINT:NAVAID:EIL:TACAN:US:AK:FAIRBANKS
EKN,VORTAC,433,ELKINS,ELKINS,WV,US,AEA,38.91443583,-80.0992725,114.2,89X,OPERATIONAL IFR,Y,Y,ZDC,ZDC,POINT:NAVAID:EKN:VORTAC,POINT:NAVAID:EKN:VORTAC:US:WV:ELKINS
EKR,VOR/DME,434,MEEKER,MEEKER,CO,US,ANM,40.06744188,-107.92494958,115.2,99X,OPERATIONAL RESTRICTED,Y,Y,ZDV,ZDV,POINT:NAVAID:EKR:VOR/DME,POINT:NAVAID:EKR:VOR/DME:US:CO:MEEKER
EL,NDB,435,LADOS,EL DORADO,AR,US,ASW,33.28616897,-92.72807486,418,,OPERATIONAL IFR,Y,Y,,,POINT:NAVAID:EL:NDB,POINT:NAVAID:EL:NDB:US:AR:EL_DORADO
ELA,DME,436,EAGLE LAKE,EAGLE LAKE,TX,US,ASW,29.66247941,-96.31712252,116.4,111X,OPERATIONAL IFR,Y,Y,ZHU,ZHU,POINT:NAVAID:ELA:DME,POINT:NAVAID:ELA:DME:US:TX:EAGLE_LAKE
ELB,VOR/DME,437,EL TORO,SANTA ANA,CA,US,AWP,33.67603566,-117.73109125,117.2,119X,OPERATIONAL RESTRICTED,Y,Y,ZLA,ZLA,POINT:NAVAID:ELB:VOR/DME,POINT:NAVAID:ELB:VOR/DME:US:CA:SANTA_ANA
ELD,VOR/DME,438,EL DORADO,EL DORADO,AR,US,ASW,33.2561538,-92.74394775,115.5,102X,OPERATIONAL RESTRICTED,Y,Y,ZFW,ZFW,POINT:NAVAID:ELD:VOR/DME,POINT:NAVAID:ELD:VOR/DME:US:AR:EL_DORADO
ELF,NDB,439,ELFEE,COLD BAY,AK,US,AAL,55.29614947,-162.78924052,341,,OPERATIONAL IFR,Y,Y,ZAN,ZAN,POINT:NAVAID:ELF:NDB,POINT:NAVAID:ELF:NDB:US:AK:COLD_BAY
ELN,VOR/DME,440,ELLENSBURG,ELLENSBURG,WA,US,ANM,47.02437419,-120.45841355,117.9,126X,OPERATIONAL RESTRICTED,Y,Y,ZSE,ZSE,POINT:NAVAID:ELN:VOR/DME,POINT:NAVAID:ELN:VOR/DME:US:WA:ELLENSBURG
ELO,DME,441,ELY,ELY,MN,US,AGL,47.82189961,-91.83014033,113.45,81Y,OPERATIONAL RESTRICTED,Y,Y,ZMP,ZMP,POINT:NAVAID:ELO:DME,POINT:NAVAID:ELO:DME:US:MN:ELY
ELP,VORTAC,442,EL PASO,EL PASO,TX,US,ASW,31.81591027,-106.28188283,115.2,99X,OPERATIONAL RESTRICTED,Y,Y,ZAB,ZAB,POINT:NAVAID:ELP:VORTAC,POINT:NAVAID:ELP:VORTAC:US:TX:EL_PASO
ELP,VOT,443,EL PASO,EL PASO,TX,US,ASW,31.80444444,-106.36611111,111,,OPERATIONAL RESTRICTED,N,Y,,,POINT:NAVAID:ELP:VOT,POINT:NAVAID:ELP:VOT:US:TX:EL_PASO
ELW,VORTAC,444,ELECTRIC CITY,ANDERSON,SC,US,ASO,34.41918616,-82.78468372,108.6,23X,OPERATIONAL RESTRICTED,Y,Y,ZTL,ZTL,POINT:NAVAID:ELW:VORTAC,POINT:NAVAID:ELW:VORTAC:US:SC:ANDERSON
ELX,DME,445,KEELER,KEELER,MI,US,AGL,42.14441236,-86.12270577,116.6,113X,OPERATIONAL RESTRICTED,Y,Y,ZAU,ZAU,POINT:NAVAID:ELX:DME,POINT:NAVAID:ELX:DME:US:MI:KEELER
ELY,VOR/DME,446,ELY,ELY,NV,US,AWP,39.29812588,-114.84830477,113.95,86Y,OPERATIONAL RESTRICTED,Y,Y,ZLC,ZLC,POINT:NAVAID:ELY:VOR/DME,POINT:NAVAID:ELY:VOR/DME:US:NV:ELY
ELZ,DME,447,WELLSVILLE,WELLSVILLE,NY,US,AEA,42.08965069,-77.99954897,115.85,105Y,OPERATIONAL RESTRICTED,Y,Y,ZOB,ZOB,POINT:NAVAID:ELZ:DME,POINT:NAVAID:ELZ:DME:US:NY:WELLSVILLE
EMG,VORTAC,448,ELM GROVE,SHREVEPORT,LA,US,ASW,32.40040555,-93.59514722,116.65,113Y,OPERATIONAL RESTRICTED,Y,Y,ZFW,ZFW,POINT:NAVAID:EMG:VORTAC,POINT:NAVAID:EMG:VORTAC:US:LA:SHREVEPORT
EMI,VORTAC,449,WESTMINSTER,WESTMINSTER,MD,US,AEA,39.49500738,-76.97857197,117.9,126X,OPERATIONAL RESTRICTED,Y,Y,ZNY,ZDC,POINT:NAVAID:EMI:VORTAC,POINT:NAVAID:EMI:VORTAC:US:MD:WESTMINSTER
EMP,VORTAC,450,EMPORIA,EMPORIA,KS,US,ACE,38.29114488,-96.13811119,112.8,75X,OPERATIONAL RESTRICTED,Y,Y,ZKC,ZKC,POINT:NAVAID:EMP:VORTAC,POINT:NAVAID:EMP:VORTAC:US:KS:EMPORIA
EMR,NDB,451,EMORY,AUGUSTA,GA,US,ASO,33.46280694,-81.99685636,385,,OPERATIONAL IFR,Y,Y,ZTL,ZTL,POINT:NAVAID:EMR:NDB,POINT:NAVAID:EMR:NDB:US:GA:AUGUSTA
ENA,VOR/DME,452,KENAI,KENAI,AK,US,AAL,60.61470211,-151.19524266,117.6,123X,OPERATIONAL IFR,Y,Y,ZAN,ZAN,POINT:NAVAID:ENA:VOR/DME,POINT:NAVAID:ENA:VOR/DME:US:AK:KENAI
END,VORTAC,453,VANCE,ENID,OK,US,ASW,36.34496666,-97.91835555,115.4,101X,OPERATIONAL RESTRICTED,Y,Y,ZKC,ZKC,POINT:NAVAID:END:VORTAC,POINT:NAVAID:END:VORTAC:US:OK:ENID
ENE,VOR/DME,454,KENNEBUNK,KENNEBUNK,ME,US,ANE,43.42567213,-70.61352547,117.1,118X,OPERATIONAL RESTRICTED,Y,Y,ZBW,ZBW,POINT:NAVAID:ENE:VOR/DME,POINT:NAVAID:ENE:VOR/DME:US:ME:KENNEBUNK
ENI,VORTAC,455,MENDOCINO,UKIAH,CA,US,AWP,39.05321675,-123.27432666,112.3,70X,OPERATIONAL IFR,Y,Y,ZOA,ZOA,POINT:NAVAID:ENI:VORTAC,POINT:NAVAID:ENI:VORTAC:US:CA:UKIAH
ENL,VORTAC,456,CENTRALIA,CENTRALIA,IL,US,AGL,38.41999869,-89.1589978,115,97X,OPERATIONAL RESTRICTED,Y,Y,ZKC,ZKC,POINT:NAVAID:ENL:VORTAC,POINT:NAVAID:ENL:VORTAC:US:IL:CENTRALIA
ENM,VOR/DME,457,EMMONAK,EMMONAK,AK,US,AAL,62.78458847,-164.48753397,117.8,125X,OPERATIONAL IFR,Y,Y,ZAN,ZAN,POINT:NAVAID:ENM:VOR/DME,POINT:NAVAID:ENM:VOR/DME:US:AK:EMMONAK
ENN,VORTAC,458,NENANA,NENANA,AK,US,AAL,64.59000691,-149.07285783,115.8,105X,OPERATIONAL RESTRICTED,Y,Y,ZAN,ZAN,POINT:NAVAID:ENN:VORTAC,POINT:NAVAID:ENN:VORTAC:US:AK:NENANA
ENO,VORTAC,459,SMYRNA,KENTON,DE,US,AEA,39.23164669,-75.51596994,111.4,51X,OPERATIONAL RESTRICTED,Y,Y,ZDC,ZDC,POINT:NAVAID:ENO:VORTAC,POINT:NAVAID:ENO:VORTAC:US:DE:KENTON
ENW,DME,460,KENOSHA,KENOSHA,WI,US,AGL,42.599077,-87.93167166,109.2,29X,OPERATIONAL IFR,Y,Y,ZAU,ZAU,POINT:NAVAID:ENW:DME,POINT:NAVAID:ENW:DME:US:WI:KENOSHA
EON,VORTAC,461,PEOTONE,PEOTONE,IL,US,AGL,41.26963236,-87.79105347,113.2,79X,OPERATIONAL IFR,Y,Y,ZAU,ZAU,POINT:NAVAID:EON:VORTAC,POINT:NAVAID:EON:VORTAC:US:IL:PEOTONE
EOS,DME,462,NEOSHO,NEOSHO,MO,US,ACE,36.84244841,-94.4357008,117.3,120X,OPERATIONAL IFR,Y,Y,ZKC,ZKC,POINT:NAVAID:EOS:DME,POINT:NAVAID:EOS:DME:US:MO:NEOSHO
EPH,VORTAC,463,EPHRATA,EPHRATA,WA,US,ANM,47.37791888,-119.42400388,112.6,73X,OPERATIONAL RESTRICTED,Y,Y,ZSE,ZSE,POINT:NAVAID:EPH:VORTAC,POINT:NAVAID:EPH:VORTAC:US:WA:EPHRATA
EQQ,NDB,464,COWETA COUNTY,NEWNAN,GA,US,ASO,33.25694452,-84.71327,234,,OPERATIONAL IFR,Y,Y,ZTL,ZTL,POINT:NAVAID:EQQ:NDB,POINT:NAVAID:EQQ:NDB:US:GA:NEWNAN
ERI,TACAN,465,ERIE,ERIE,PA,US,AEA,42.01739691,-80.29269816,109.4,31X,OPERATIONAL RESTRICTED,Y,Y,ZOB,ZOB,POINT:NAVAID:ERI:TACAN,POINT:NAVAID:ERI:TACAN:US:PA:ERIE
ES,NDB,466,PIKLE,ESCANABA,MI,US,AGL,45.72273002,-87.22483744,344,,OPERATIONAL IFR,Y,Y,ZMP,ZMP,POINT:NAVAID:ES:NDB,POINT:NAVAID:ES:NDB:US:MI:ESCANABA
ESC,VOR/DME,467,ESCANABA,ESCANABA,MI,US,AGL,45.72263527,-87.08959827,113.55,82Y,OPERATIONAL RESTRICTED,Y,Y,ZMP,ZMP,POINT:NAVAID:ESC:VOR/DME,POINT:NAVAID:ESC:VOR/DME:US:MI:ESCANABA
ESG,NDB,468,ROLLINS,ROLLINSFORD,NH,US,ANE,43.22022088,-70.82834794,260,,OPERATIONAL IFR,Y,Y,ZBW,ZBW,POINT:NAVAID:ESG:NDB,POINT:NAVAID:ESG:NDB:US:NH:ROLLINSFORD
ESL,VOR/DME,469,KESSEL,KESSEL,WV,US,AEA,39.22549277,-78.9895,110.8,45X,OPERATIONAL RESTRICTED,Y,Y,ZDC,ZDC,POINT:NAVAID:ESL:VOR/DME,POINT:NAVAID:ESL:VOR/DME:US:WV:KESSEL
ETG,VORTAC,470,KEATING,KEATING,PA,US,AEA,41.21494972,-78.14275638,116,107X,OPERATIONAL IFR,Y,Y,ZOB,ZOB,POINT:NAVAID:ETG:VORTAC,POINT:NAVAID:ETG:VORTAC:US:PA:KEATING
ETL,VOR/DME,471,CONES,TELLURIDE,CO,US,ANM,38.04025222,-108.25857444,116.95,116Y,OPERATIONAL RESTRICTED,Y,Y,ZDV,ZDV,POINT:NAVAID:ETL:VOR/DME,POINT:NAVAID:ETL:VOR/DME:US:CO:TELLURIDE
ETX,VOR/DME,472,EAST TEXAS,EAST TEXAS,PA,US,AEA,40.58103902,-75.68403013,110.2,39X,OPERATIONAL RESTRICTED,Y,Y,ZNY,ZNY,POINT:NAVAID:ETX:VOR/DME,POINT:NAVAID:ETX:VOR/DME:US:PA:EAST_TEXAS
EUF,VOR/DME,473,EUFAULA,EUFAULA,AL,US,ASO,31.95025077,-85.1304795,109.2,29X,OPERATIONAL RESTRICTED,Y,Y,ZTL,ZTL,POINT:NAVAID:EUF:VOR/DME,POINT:NAVAID:EUF:VOR/DME:US:AL:EUFAULA
EUG,VORTAC,474,EUGENE,EUGENE,OR,US,ANM,44.12089841,-123.22283125,112.9,76X,OPERATIONAL RESTRICTED,Y,Y,ZSE,ZSE,POINT:NAVAID:EUG:VORTAC,POINT:NAVAID:EUG:VORTAC:US:OR:EUGENE
EVW,VOR/DME,475,EVANSTON,EVANSTON,WY,US,ANM,41.27248775,-111.0467665,109.6,33X,OPERATIONAL RESTRICTED,Y,Y,ZLC,ZLC,POINT:NAVAID:EVW:VOR/DME,POINT:NAVAID:EVW:VOR/DME:US:WY:EVANSTON
EW,NDB,476,KATFI,NEW BERN,NC,US,ASO,35.02162422,-77.07946183,362,,OPERATIONAL IFR,Y,Y,,,POINT:NAVAID:EW:NDB,POINT:NAVAID:EW:NDB:US:NC:NEW_BERN
EWA,DME,477,KEWANEE,KEWANEE,MS,US,ASO,32.36766666,-88.45716666,113.8,85X,OPERATIONAL RESTRICTED,Y,Y,ZME,ZME,POINT:NAVAID:EWA:DME,POINT:NAVAID:EWA:DME:US:MS:KEWANEE
EWC,VOR/DME,478,ELLWOOD CITY,ELLWOOD CITY,PA,US,AEA,40.82493266,-80.21154555,115.8,105X,OPERATIONAL RESTRICTED,Y,Y,ZOB,ZOB,POINT:NAVAID:EWC:VOR/DME,POINT:NAVAID:EWC:VOR/DME:US:PA:ELLWOOD_CITY
EWM,VORTAC,479,NEWMAN,NEWMAN,TX,US,ASW,31.95178611,-106.27245833,112.4,71X,OPERATIONAL RESTRICTED,Y,Y,ZAB,ZAB,POINT:NAVAID:EWM:VORTAC,POINT:NAVAID:EWM:VORTAC:US:TX:NEWMAN
EWN,VOR/DME,480,NEW BERN,NEW BERN,NC,US,ASO,35.07314138,-77.0450658,113.6,83X,OPERATIONAL RESTRICTED,Y,Y,ZDC,ZDC,POINT:NAVAID:EWN:VOR/DME,POINT:NAVAID:EWN:VOR/DME:US:NC:NEW_BERN
EWO,VOR/DME,481,NEW HOPE,NEW HOPE,KY,US,ASO,37.63181138,-85.6758775,113.95,86Y,OPERATIONAL IFR,Y,Y,ZID,ZID,POINT:NAVAID:EWO:VOR/DME,POINT:NAVAID:EWO:VOR/DME:US:KY:NEW_HOPE
EWR,DME,482,NEWARK,NEWARK,NJ,US,AEA,40.67434444,-74.17796666,113.75,84Y,SHUTDOWN,Y,Y,ZNY,ZNY,POINT:NAVAID:EWR:DME,POINT:NAVAID:EWR:DME:US:NJ:NEWARK
EWR,FAN_MARKER,483,MARYANN,NEWARK,NJ,US,AEA,40.703384,-74.18742252,,,OPERATIONAL IFR,Y,Y,,ZNY,POINT:NAVAID:EWR:FAN_MARKER,POINT:NAVAID:EWR:FAN_MARKER:US:NJ:NEWARK
EYW,VORTAC,484,KEY WEST,KEY WEST,FL,US,ASO,24.58587827,-81.80047633,113.5,82X,OPERATIONAL RESTRICTED,Y,Y,ZMA,ZMA,POINT:NAVAID:EYW:VORTAC,POINT:NAVAID:EYW:VORTAC:US:FL:KEY_WEST
EZF,NDB,485,SHANNON,FREDERICKSBURG,VA,US,AEA,38.26634794,-77.45050913,237,,OPERATIONAL RESTRICTED,Y,Y,ZDC,ZDC,POINT:NAVAID:EZF:NDB,POINT:NAVAID:EZF:NDB:US:VA:FREDERICKSBURG
EZM,NDB,486,EASTMAN,EASTMAN,GA,US,ASO,32.13169205,-83.15394247,366,,OPERATIONAL IFR,Y,Y,ZTL,ZJX,POINT:NAVAID:EZM:NDB,POINT:NAVAID:EZM:NDB:US:GA:EASTMAN
FAH,DME,487,FALLS,SHEBOYGAN,WI,US,AGL,43.7687865,-87.84876863,110,37X,OPERATIONAL IFR,Y,Y,ZAU,ZAU,POINT:NAVAID:FAH:DME,POINT:NAVAID:FAH:DME:US:WI:SHEBOYGAN
FAI,VORTAC,488,FAIRBANKS,FAIRBANKS,AK,US,AAL,64.80007047,-148.01197588,108.6,23X,OPERATIONAL IFR,Y,Y,ZAN,ZAN,POINT:NAVAID:FAI:VORTAC,POINT:NAVAID:FAI:VORTAC:US:AK:FAIRBANKS
FAK,VORTAC,489,FLAT ROCK,FLAT ROCK,VA,US,AEA,37.52850944,-77.82821916,113.3,80X,OPERATIONAL RESTRICTED,Y,Y,ZDC,ZDC,POINT:NAVAID:FAK:VORTAC,POINT:NAVAID:FAK:VORTAC:US:VA:FLAT_ROCK
FAM,VORTAC,490,FARMINGTON,FARMINGTON,MO,US,ACE,37.67346288,-90.23406127,115.7,104X,OPERATIONAL RESTRICTED,Y,Y,ZKC,ZKC,POINT:NAVAID:FAM:VORTAC,POINT:NAVAID:FAM:VORTAC:US:MO:FARMINGTON
FAR,VOR/DME,491,FARGO,FARGO,ND,US,AGL,46.75333691,-96.85131897,116.2,109X,OPERATIONAL IFR,Y,Y,ZMP,ZMP,POINT:NAVAID:FAR:VOR/DME,POINT:NAVAID:FAR:VOR/DME:US:ND:FARGO
FAY,VOR/DME,492,FAYETTEVILLE,FAYETTEVILLE,NC,US,ASO,34.98555122,-78.87506386,114.85,95Y,OPERATIONAL RESTRICTED,Y,Y,ZDC,ZDC,POINT:NAVAID:FAY:VOR/DME,POINT:NAVAID:FAY:VOR/DME:US:NC:FAYETTEVILLE
FBC,VORTAC,493,FLAG CITY,FINDLAY,OH,US,AGL,40.95533383,-83.75602461,108.2,19X,OPERATIONAL IFR,Y,Y,ZOB,ZOB,POINT:NAVAID:FBC:VORTAC,POINT:NAVAID:FBC:VORTAC:US:OH:FINDLAY
FBR,VOR/DME,494,FORT BRIDGER,FORT BRIDGER,WY,US,ANM,41.37843997,-110.42406122,114.45,91Y,OPERATIONAL RESTRICTED,Y,Y,ZLC,ZLC,POINT:NAVAID:FBR:VOR/DME,POINT:NAVAID:FBR:VOR/DME:US:WY:FORT_BRIDGER
FBY,NDB,495,FAIRBURY,FAIRBURY,NE,US,ACE,40.17667263,-97.16582441,293,,OPERATIONAL IFR,Y,Y,ZMP,ZMP,POINT:NAVAID:FBY:NDB,POINT:NAVAID:FBY:NDB:US:NE:FAIRBURY
FCA,VOR/DME,496,KALISPELL,KALISPELL,MT,US,ANM,48.21410244,-114.17589072,113.2,79X,OPERATIONAL RESTRICTED,Y,Y,ZLC,ZLC,POINT:NAVAID:FCA:VOR/DME,POINT:NAVAID:FCA:VOR/DME:US:MT:KALISPELL
FCM,VOR/DME,497,FLYING CLOUD,MINNEAPOLIS,MN,US,AGL,44.82535008,-93.44268869,117.7,124X,OPERATIONAL RESTRICTED,Y,Y,ZMP,ZMP,POINT:NAVAID:FCM:VOR/DME,POINT:NAVAID:FCM:VOR/DME:US:MN:MINNEAPOLIS
FCS,VOR/DME,498,BUTTS,FORT CARSON,CO,US,ANM,38.68069852,-104.75692025,108.8,25X,OPERATIONAL RESTRICTED,Y,Y,ZDV,ZDV,POINT:NAVAID:FCS:VOR/DME,POINT:NAVAID:FCS:VOR/DME:US:CO:FORT_CARSON
FDK,VOR/DME,499,FREDERICK,FREDERICK,MD,US,AEA,39.41223608,-77.37511608,116.85,115Y,OPERATIONAL RESTRICTED,Y,Y,ZDC,ZDC,POINT:NAVAID:FDK:VOR/DME,POINT:NAVAID:FDK:VOR/DME:US:MD:FREDERICK
FDV,NDB,500,FORT DAVIS,NOME,AK,US,AAL,64.49474644,-165.3150973,529,,OPERATIONAL IFR,Y,Y,ZAN,ZAN,POINT:NAVAID:FDV:NDB,POINT:NAVAID:FDV:NDB:US:AK:NOME
FF,NDB,501,HAMRE,FERGUS FALLS,MN,US,AGL,46.21981633,-96.05768463,337,,OPERATIONAL IFR,Y,Y,,,POINT:NAVAID:FF:NDB,POINT:NAVAID:FF:NDB:US:MN:FERGUS_FALLS
FFC,NDB,502,PECAT,ATLANTA,GA,US,ASO,33.30091938,-84.48642669,316,,OPERATIONAL IFR,Y,Y,ZTL,ZTL,POINT:NAVAID:FFC:NDB,POINT:NAVAID:FFC:NDB:US:GA:ATLANTA
FFM,VOR/DME,503,FERGUS FALLS,FERGUS FALLS,MN,US,AGL,46.28935194,-96.15681111,110.4,41X,OPERATIONAL RESTRICTED,Y,Y,ZMP,ZMP,POINT:NAVAID:FFM:VOR/DME,POINT:NAVAID:FFM:VOR/DME:US:MN:FERGUS_FALLS
FFO,TACAN,504,PATTERSON,DAYTON,OH,US,AGL,39.81897777,-84.05548055,109.2,29X,OPERATIONAL RESTRICTED,Y,N,ZID,ZID,POINT:NAVAID:FFO:TACAN,POINT:NAVAID:FFO:TACAN:US:OH:DAYTON
FFT,VOR,505,FRANKFORT,FRANKFORT,KY,US,ASO,38.18242302,-84.90862316,109.4,,OPERATIONAL RESTRICTED,Y,Y,ZID,ZID,POINT:NAVAID:FFT:VOR,POINT:NAVAID:FFT:VOR:US:KY:FRANKFORT
FFU,VORTAC,506,FAIRFIELD,PROVO,UT,US,ANM,40.27489461,-111.9405315,116.6,113X,OPERATIONAL RESTRICTED,Y,Y,ZLC,ZLC,POINT:NAVAID:FFU:VORTAC,POINT:NAVAID:FFU:VORTAC:US:UT:PROVO
FGT,VORTAC,507,FARMINGTON,FARMINGTON,MN,US,AGL,44.63095286,-93.18205308,115.7,104X,OPERATIONAL RESTRICTED,Y,Y,ZMP,ZMP,POINT:NAVAID:FGT:VORTAC,POINT:NAVAID:FGT:VORTAC:US:MN:FARMINGTON
FHR,NDB,508,FRIDAY HARBOR,FRIDAY HARBOR,WA,US,ANM,48.51213586,-123.02386227,284,,OPERATIONAL IFR,Y,Y,ZSE,ZSE,POINT:NAVAID:FHR:NDB,POINT:NAVAID:FHR:NDB:US:WA:FRIDAY_HARBOR
FHU,VOR/DME,509,LIBBY,FORT HUACHUCA SIERRA VISTA,AZ,US,AWP,31.58965605,-110.35494247,113.6,83X,OPERATIONAL RESTRICTED,Y,Y,ZAB,ZAB,POINT:NAVAID:FHU:VOR/DME,POINT:NAVAID:FHU:VOR/DME:US:AZ:FORT_HUACHUCA_SIERRA_VISTA
FIM,VORTAC,510,FILLMORE,FILLMORE,CA,US,AWP,34.35669361,-118.88129111,112.5,72X,OPERATIONAL RESTRICTED,Y,Y,ZLA,ZLA,POINT:NAVAID:FIM:VORTAC,POINT:NAVAID:FIM:VORTAC:US:CA:FILLMORE
FIQ,NDB,511,FIDDLERS,MORGANTON,NC,US,ASO,35.71021386,-81.67135411,391,,OPERATIONAL RESTRICTED,Y,Y,ZTL,ZTL,POINT:NAVAID:FIQ:NDB,POINT:NAVAID:FIQ:NDB:US:NC:MORGANTON
FJC,VORTAC,512,ALLENTOWN,ALLENTOWN,PA,US,AEA,40.72668727,-75.45474519,117.5,122X,OPERATIONAL RESTRICTED,Y,Y,ZNY,ZNY,POINT:NAVAID:FJC:VORTAC,POINT:NAVAID:FJC:VORTAC:US:PA:ALLENTOWN
FJS,VOR/DME,513,FORT JONES,FORT JONES,CA,US,AWP,41.44966916,-122.8064475,116.25,109Y,OPERATIONAL RESTRICTED,Y,Y,ZSE,ZSE,POINT:NAVAID:FJS:VOR/DME,POINT:NAVAID:FJS:VOR/DME:US:CA:FORT_JONES
FK,NDB,514,AIRBE,HOPKINSVILLE,KY,US,ASO,36.73700502,-87.41385227,273,,OPERATIONAL IFR,Y,Y,ZME,ZME,POINT:NAVAID:FK:NDB,POINT:NAVAID:FK:NDB:US:KY:HOPKINSVILLE
FKL,VOR,515,FRANKLIN,FRANKLIN,PA,US,AEA,41.43849833,-79.85670594,109.6,,OPERATIONAL RESTRICTED,Y,Y,ZOB,ZOB,POINT:NAVAID:FKL:VOR,POINT:NAVAID:FKL:VOR:US:PA:FRANKLIN
FLG,VOR/DME,516,FLAGSTAFF,FLAGSTAFF,AZ,US,AWP,35.14719783,-111.67416277,113.85,85Y,OPERATIONAL RESTRICTED,Y,Y,ZAB,ZAB,POINT:NAVAID:FLG:VOR/DME,POINT:NAVAID:FLG:VOR/DME:US:AZ:FLAGSTAFF
FLL,VOR/DME,517,FORT LAUDERDALE,FORT LAUDERDALE,FL,US,ASO,26.07394338,-80.16644183,114.4,91X,OPERATIONAL RESTRICTED,Y,Y,ZMA,ZMA,POINT:NAVAID:FLL:VOR/DME,POINT:NAVAID:FLL:VOR/DME:US:FL:FORT_LAUDERDALE
FLM,VOR/DME,518,FALMOUTH,FALMOUTH,KY,US,ASO,38.64944141,-84.31060166,117,117X,OPERATIONAL IFR,Y,Y,ZID,ZID,POINT:NAVAID:FLM:VOR/DME,POINT:NAVAID:FLM:VOR/DME:US:KY:FALMOUTH
FLO,VORTAC,519,FLORENCE,FLORENCE,SC,US,ASO,34.23296813,-79.657161,115.2,99X,OPERATIONAL RESTRICTED,Y,Y,ZJX,ZJX,POINT:NAVAID:FLO:VORTAC,POINT:NAVAID:FLO:VORTAC:US:SC:FLORENCE
FLP,DME,520,FLIPPIN,FLIPPIN,AR,US,ASW,36.29964627,-92.45838894,116.05,107Y,OPERATIONAL RESTRICTED,Y,Y,ZME,ZME,POINT:NAVAID:FLP:DME,POINT:NAVAID:FLP:DME:US:AR:FLIPPIN
FLW,VOR/DME,521,FELLOWS,FELLOWS,CA,US,AWP,35.09308444,-119.86557861,117.5,122X,OPERATIONAL RESTRICTED,Y,Y,ZLA,ZLA,POINT:NAVAID:FLW:VOR/DME,POINT:NAVAID:FLW:VOR/DME:US:CA:FELLOWS
FM,NDB,522,CALOO,FORT MYERS,FL,US,ASO,26.51612938,-81.95026975,341,,OPERATIONAL IFR,Y,N,,,POINT:NAVAID:FM:NDB,POINT:NAVAID:FM:NDB:US:FL:FORT_MYERS
FMG,VORTAC,523,MUSTANG,RENO,NV,US,AWP,39.53127736,-119.65607586,117.9,126X,OPERATIONAL RESTRICTED,Y,Y,ZOA,ZOA,POINT:NAVAID:FMG:VORTAC,POINT:NAVAID:FMG:VORTAC:US:NV:RENO
FMZ,NDB,524,BEKLOF,FAIRMONT,NE,US,ACE,40.58994577,-97.56805075,392,,OPERATIONAL IFR,Y,Y,ZMP,ZMP,POINT:NAVAID:FMZ:NDB,POINT:NAVAID:FMZ:NDB:US:NE:FAIRMONT
FND,NDB,525,ELLICOTT,BALTIMORE,MD,US,AEA,39.28735172,-76.77701755,371,,OPERATIONAL RESTRICTED,Y,Y,ZDC,ZDC,POINT:NAVAID:FND:NDB,POINT:NAVAID:FND:NDB:US:MD:BALTIMORE
FNT,VORTAC,526,FLINT,FLINT,MI,US,AGL,42.9667665,-83.7469878,116.9,116X,OPERATIONAL RESTRICTED,Y,Y,ZOB,ZOB,POINT:NAVAID:FNT:VORTAC,POINT:NAVAID:FNT:VORTAC:US:MI:FLINT
FNX,DME,527,FAIRMONT,FAIRMONT,MN,US,AGL,43.63775741,-94.41319816,114.25,89Y,OPERATIONAL IFR,Y,Y,ZMP,ZMP,POINT:NAVAID:FNX:DME,POINT:NAVAID:FNX:DME:US:MN:FAIRMONT
FO,NDB,528,BARRO,FORT DODGE,IA,US,ACE,42.514493,-94.30557825,341,,OPERATIONAL IFR,Y,Y,,,POINT:NAVAID:FO:NDB,POINT:NAVAID:FO:NDB:US:IA:FORT_DODGE
FOD,TACAN,529,FORT DODGE,FORT DODGE,IA,US,ACE,42.61112497,-94.29481613,113.5,82X,OPERATIONAL RESTRICTED,Y,Y,ZMP,ZMP,POINT:NAVAID:FOD:TACAN,POINT:NAVAID:FOD:TACAN:US:IA:FORT_DODGE
FOE,TACAN,530,FORBES,TOPEKA,KS,US,ACE,38.94737016,-95.66117905,111.6,53X,OPERATIONAL IFR,Y,Y,ZKC,ZKC,POINT:NAVAID:FOE:TACAN,POINT:NAVAID:FOE:TACAN:US:KS:TOPEKA
FOE,VOT,531,FORBES,TOPEKA,KS,US,ACE,38.95166675,-95.66694452,111,,OPERATIONAL IFR,Y,Y,,,POINT:NAVAID:FOE:VOT,POINT:NAVAID:FOE:VOT:US:KS:TOPEKA
FOF,VOR/DME,532,MARTINIQUE,FORT DE FRANCE,,MQ,,14.59075,-61.02280555,113.3,80X,OPERATIONAL IFR,N,Y,,,POINT:NAVAID:FOF:VOR/DME,POINT:NAVAID:FOF:VOR/DME:MQ::FORT_DE_FRANCE
FOK,TACAN,533,SUFFOLK CO,WESTHAMPTON BEACH,NY,US,AEA,40.83777505,-72.631841,111,47X,OPERATIONAL RESTRICTED,Y,Y,,ZBW,POINT:NAVAID:FOK:TACAN,POINT:NAVAID:FOK:TACAN:US:NY:WESTHAMPTON_BEACH
FOT,VORTAC,534,FORTUNA,FORTUNA,CA,US,AWP,40.67127158,-124.23453625,114,87X,OPERATIONAL RESTRICTED,Y,Y,ZSE,ZSE,POINT:NAVAID:FOT:VORTAC,POINT:NAVAID:FOT:VORTAC:US:CA:FORTUNA
FOW,VOR/DME,535,HALFWAY,MORRISTOWN,MN,US,AGL,44.20444444,-93.3705,111.2,49X,OPERATIONAL IFR,Y,Y,ZMP,ZMP,POINT:NAVAID:FOW:VOR/DME,POINT:NAVAID:FOW:VOR/DME:US:MN:MORRISTOWN
FQ,NDB,536,MONTZ,FAIRMONT,MN,US,AGL,43.57365541,-94.31798061,420,,OPERATIONAL IFR,Y,Y,ZMP,ZMP,POINT:NAVAID:FQ:NDB,POINT:NAVAID:FQ:NDB:US:MN:FAIRMONT
FQF,VORTAC,537,FALCON,DENVER,CO,US,ANM,39.69013888,-104.62097222,116.3,110X,OPERATIONAL RESTRICTED,Y,Y,ZDV,ZDV,POINT:NAVAID:FQF:VORTAC,POINT:NAVAID:FQF:VORTAC:US:CO:DENVER
FQM,VOR/DME,538,WILLIAMSPORT,WILLIAMSPORT,PA,US,AEA,41.3385585,-76.77486658,114.4,91X,OPERATIONAL IFR,Y,Y,ZNY,ZNY,POINT:NAVAID:FQM:VOR/DME,POINT:NAVAID:FQM:VOR/DME:US:PA:WILLIAMSPORT
FR,NDB,539,FRIKK,FARMINGDALE,NY,US,AEA,40.77651602,-73.48245663,407,,OPERATIONAL IFR,N,N,,,POINT:NAVAID:FR:NDB,POINT:NAVAID:FR:NDB:US:NY:FARMINGDALE
FRA,VORTAC,540,FRIANT,FRIANT,CA,US,AWP,37.10442083,-119.59544555,115.6,103X,OPERATIONAL IFR,Y,Y,ZOA,ZOA,POINT:NAVAID:FRA:VORTAC,POINT:NAVAID:FRA:VORTAC:US:CA:FRIANT
FRI,VOR,541,FORT RILEY,FORT RILEY (JUNCTION CITY),KS,US,ACE,38.97016411,-96.86117227,109.4,,OPERATIONAL RESTRICTED,Y,Y,ZKC,ZKC,POINT:NAVAID:FRI:VOR,POINT:NAVAID:FRI:VOR:US:KS:FORT_RILEY__JUNCTION_CITY
FS,NDB,542,ROKKY,SIOUX FALLS,SD,US,AGL,43.49396444,-96.82906,245,,OPERATIONAL IFR,Y,Y,ZMP,ZMP,POINT:NAVAID:FS:NDB,POINT:NAVAID:FS:NDB:US:SD:SIOUX_FALLS
FSD,VORTAC,543,SIOUX FALLS,SIOUX FALLS,SD,US,AGL,43.64949047,-96.78112502,115,97X,OPERATIONAL RESTRICTED,Y,Y,ZMP,ZMP,POINT:NAVAID:FSD:VORTAC,POINT:NAVAID:FSD:VORTAC:US:SD:SIOUX_FALLS
FSI,FAN_MARKER,544,TRAIL,FORT SILL,OK,US,ASW,34.78137361,-98.40230444,,,OPERATIONAL IFR,Y,Y,ZFW,ZFW,POINT:NAVAID:FSI:FAN_MARKER,POINT:NAVAID:FSI:FAN_MARKER:US:OK:FORT_SILL
FSM,VORTAC,545,FORT SMITH,FORT SMITH,AR,US,ASW,35.38840763,-94.27152422,110.4,41X,OPERATIONAL IFR,Y,Y,ZME,ZME,POINT:NAVAID:FSM:VORTAC,POINT:NAVAID:FSM:VORTAC:US:AR:FORT_SMITH
FST,VORTAC,546,FORT STOCKTON,FORT STOCKTON,TX,US,ASW,30.95210705,-102.97571136,116.9,116X,OPERATIONAL RESTRICTED,Y,Y,ZAB,ZAB,POINT:NAVAID:FST:VORTAC,POINT:NAVAID:FST:VORTAC:US:TX:FORT_STOCKTON
FT,NDB,547,MUFIN,FORT WORTH,TX,US,ASW,32.89308875,-97.37333763,365,,OPERATIONAL IFR,Y,Y,,,POINT:NAVAID:FT:NDB,POINT:NAVAID:FT:NDB:US:TX:FORT_WORTH
FTI,VORTAC,548,FORT UNION,LAS VEGAS,NM,US,ASW,35.6575495,-105.13559641,117.3,120X,OPERATIONAL RESTRICTED,Y,Y,ZAB,ZAB,POINT:NAVAID:FTI:VORTAC,POINT:NAVAID:FTI:VORTAC:US:NM:LAS_VEGAS
FTK,VOR/DME,549,FORT KNOX,FORT KNOX,KY,US,ASO,37.90721691,-85.97256363,109.6,33X,OPERATIONAL IFR,Y,Y,ZID,ZID,POINT:NAVAID:FTK:VOR/DME,POINT:NAVAID:FTK:VOR/DME:US:KY:FORT_KNOX
FTW,VOT,550,FORT WORTH,FORT WORTH,TX,US,ASW,32.82000277,-97.36413888,108.2,,OPERATIONAL IFR,N,Y,,,POINT:NAVAID:FTW:VOT,POINT:NAVAID:FTW:VOT:US:TX:FORT_WORTH
FTZ,VORTAC,551,FORISTELL,FORISTELL,MO,US,ACE,38.69433369,-90.97126933,114.35,90Y,OPERATIONAL RESTRICTED,Y,Y,ZKC,ZKC,POINT:NAVAID:FTZ:VORTAC,POINT:NAVAID:FTZ:VORTAC:US:MO:FORISTELL
FUZ,VORTAC,552,RANGER,DALLAS-FORT WORTH,TX,US,ASW,32.8894488,-97.17942588,115.7,104X,OPERATIONAL RESTRICTED,Y,Y,ZFW,ZFW,POINT:NAVAID:FUZ:VORTAC,POINT:NAVAID:FUZ:VORTAC:US:TX:DALLAS-FORT_WORTH
FVI,DME,553,FALL RIVER MILLS,FALL RIVER MILLS,CA,US,AWP,41.01616666,-121.43341666,116.9,116X,OPERATIONAL RESTRICTED,Y,Y,ZOA,ZOA,POINT:NAVAID:FVI:DME,POINT:NAVAID:FVI:DME:US:CA:FALL_RIVER_MILLS
FVQ,DME,554,CARLSBAD,CARLSBAD,CA,US,AWP,33.13017222,-117.2759,116.95,116Y,OPERATIONAL RESTRICTED,Y,Y,ZLA,ZLA,POINT:NAVAID:FVQ:DME,POINT:NAVAID:FVQ:DME:US:CA:CARLSBAD
FWA,VORTAC,555,FORT WAYNE,FORT WAYNE,IN,US,AGL,40.9790643,-85.18805811,117.8,125X,OPERATIONAL RESTRICTED,Y,Y,ZAU,ZAU,POINT:NAVAID:FWA:VORTAC,POINT:NAVAID:FWA:VORTAC:US:IN:FORT_WAYNE
FWC,NDB,556,WAYNE COUNTY,FAIRFIELD,IL,US,AGL,38.38017647,-88.40934888,257,,OPERATIONAL IFR,Y,Y,ZKC,ZKC,POINT:NAVAID:FWC:NDB,POINT:NAVAID:FWC:NDB:US:IL:FAIRFIELD
FXU,VOR,557,POLK,FORT POLK,LA,US,ASW,31.11146138,-93.21917472,108.4,,OPERATIONAL RESTRICTED,Y,Y,ZHU,ZHU,POINT:NAVAID:FXU:VOR,POINT:NAVAID:FXU:VOR:US:LA:FORT_POLK
FYU,VORTAC,558,FORT YUKON,FORT YUKON,AK,US,AAL,66.57425377,-145.27665708,114.4,91X,OPERATIONAL RESTRICTED,Y,Y,ZAN,ZAN,POINT:NAVAID:FYU:VORTAC,POINT:NAVAID:FYU:VORTAC:US:AK:FORT_YUKON
FZ,NDB,559,EAVES,ST LOUIS,MO,US,ACE,38.67736102,-90.54732025,227,,OPERATIONAL IFR,N,N,,,POINT:NAVAID:FZ:NDB,POINT:NAVAID:FZ:NDB:US:MO:ST_LOUIS
FZT,VOR/DME,560,FRANKSTON,FRANKSTON,TX,US,ASW,32.07460416,-95.53079055,111.4,51X,OPERATIONAL RESTRICTED,Y,Y,ZFW,ZFW,POINT:NAVAID:FZT:VOR/DME,POINT:NAVAID:FZT:VOR/DME:US:TX:FRANKSTON
GAD,VOR/DME,561,GADSDEN,GADSDEN,AL,US,ASO,33.97640305,-86.08355694,112.3,70X,OPERATIONAL RESTRICTED,Y,Y,ZTL,ZTL,POINT:NAVAID:GAD:VOR/DME,POINT:NAVAID:GAD:VOR/DME:US:AL:GADSDEN
GAL,VOR/DME,562,GALENA,GALENA,AK,US,AAL,64.73812777,-156.77713611,114.8,95X,OPERATIONAL IFR,Y,Y,ZAN,ZAN,POINT:NAVAID:GAL:VOR/DME,POINT:NAVAID:GAL:VOR/DME:US:AK:GALENA
GAM,DME,563,GAMBELL,GAMBELL,AK,US,AAL,63.7818755,-171.73677822,114.5,92X,OPERATIONAL RESTRICTED,Y,Y,ZAN,ZAN,POINT:NAVAID:GAM:DME,POINT:NAVAID:GAM:DME:US:AK:GAMBELL
GB,NDB,564,PLAZZ,BUFFALO,NY,US,AEA,42.87388811,-78.81645197,204,,OPERATIONAL IFR,N,N,,,POINT:NAVAID:GB:NDB,POINT:NAVAID:GB:NDB:US:NY:BUFFALO
GB,NDB,565,BABSY,GREAT BEND,KS,US,ACE,38.25164827,-98.85587094,419,,OPERATIONAL IFR,Y,Y,,,POINT:NAVAID:GB:NDB,POINT:NAVAID:GB:NDB:US:KS:GREAT_BEND
GB,NDB,566,GARNO,MARSHALL,MN,US,AGL,44.50206313,-95.91097344,253,,OPERATIONAL IFR,Y,Y,,,POINT:NAVAID:GB:NDB,POINT:NAVAID:GB:NDB:US:MN:MARSHALL
GBG,DME,567,GALESBURG,GALESBURG,IL,US,AGL,40.93734333,-90.43446361,109.8,35X,OPERATIONAL IFR,Y,Y,ZAU,ZAU,POINT:NAVAID:GBG:DME,POINT:NAVAID:GBG:DME:US:IL:GALESBURG
GBN,VORTAC,568,GILA BEND,GILA BEND,AZ,US,AWP,32.95625833,-112.67427166,116.6,113X,OPERATIONAL RESTRICTED,Y,Y,ZAB,ZAB,POINT:NAVAID:GBN:VORTAC,POINT:NAVAID:GBN:VORTAC:US:AZ:GILA_BEND
GC,NDB,569,DERYK,GILLETTE,WY,US,ANM,44.27090325,-105.52223458,380,,OPERATIONAL IFR,Y,Y,ZDV,ZDV,POINT:NAVAID:GC:NDB,POINT:NAVAID:GC:NDB:US:WY:GILLETTE
GCC,VOR/DME,570,GILLETTE,GILLETTE,WY,US,ANM,44.34777291,-105.54348588,114.6,93X,OPERATIONAL RESTRICTED,Y,Y,ZDV,ZDV,POINT:NAVAID:GCC:VOR/DME,POINT:NAVAID:GCC:VOR/DME:US:WY:GILLETTE
GCK,VORTAC,571,GARDEN CITY,GARDEN CITY,KS,US,ACE,37.91900372,-100.72500863,113.3,80X,OPERATIONAL RESTRICTED,Y,Y,ZKC,ZKC,POINT:NAVAID:GCK:VORTAC,POINT:NAVAID:GCK:VORTAC:US:KS:GARDEN_CITY
GCN,VOR/DME,572,GRAND CANYON,GRAND CANYON,AZ,US,AWP,35.96034027,-112.14604627,111.65,53Y,OPERATIONAL RESTRICTED,Y,Y,ZLA,ZLA,POINT:NAVAID:GCN:VOR/DME,POINT:NAVAID:GCN:VOR/DME:US:AZ:GRAND_CANYON
GCO,DME,573,CHICAGO,CHICAGO,IL,US,AGL,41.99408888,-87.90232777,108.25,19Y,OPERATIONAL RESTRICTED,Y,Y,ZAU,ZAU,POINT:NAVAID:GCO:DME,POINT:NAVAID:GCO:DME:US:IL:CHICAGO
GCR,NDB,574,GLACIER RIVER,CORDOVA,AK,US,AAL,60.49875625,-145.47446722,404,,OPERATIONAL IFR,Y,Y,ZAN,ZAN,POINT:NAVAID:GCR:NDB,POINT:NAVAID:GCR:NDB:US:AK:CORDOVA
GCV,TACAN,575,GREENE COUNTY,LEAKESVILLE,MS,US,ASO,31.09795972,-88.48612888,115.7,104X,OPERATIONAL RESTRICTED,Y,Y,ZHU,ZHU,POINT:NAVAID:GCV:TACAN,POINT:NAVAID:GCV:TACAN:US:MS:LEAKESVILLE
GDE,NDB,576,GOODHUE,BEAUMONT,TX,US,ASW,30.07047208,-94.21103544,368,,OPERATIONAL VFR ONLY,Y,Y,ZHU,ZHU,POINT:NAVAID:GDE:NDB,POINT:NAVAID:GDE:NDB:US:TX:BEAUMONT
GDM,VOR/DME,577,GARDNER,GARDNER,MA,US,ANE,42.54592083,-72.05818822,116.95,116Y,OPERATIONAL IFR,Y,Y,ZBW,ZBW,POINT:NAVAID:GDM:VOR/DME,POINT:NAVAID:GDM:VOR/DME:US:MA:GARDNER
GDV,DME,578,GLENDIVE,GLENDIVE,MT,US,ANM,47.13337222,-104.80473888,114.35,90Y,OPERATIONAL IFR,Y,Y,ZLC,ZLC,POINT:NAVAID:GDV:DME,POINT:NAVAID:GDV:DME:US:MT:GLENDIVE
GEE,VOR/DME,579,GENESEO,GENESEO,NY,US,AEA,42.83439638,-77.73275083,108.2,19X,OPERATIONAL RESTRICTED,Y,Y,ZOB,ZOB,POINT:NAVAID:GEE:VOR/DME,POINT:NAVAID:GEE:VOR/DME:US:NY:GENESEO
GEF,VORTAC,580,GREENVILLE,GREENVILLE,FL,US,ASO,30.55134166,-83.78313277,113.65,83Y,OPERATIONAL RESTRICTED,Y,Y,ZJX,ZJX,POINT:NAVAID:GEF:VORTAC,POINT:NAVAID:GEF:VORTAC:US:FL:GREENVILLE
GEG,VORTAC,581,SPOKANE,SPOKANE,WA,US,ANM,47.56494583,-117.62688583,115.5,102X,OPERATIONAL RESTRICTED,Y,Y,ZSE,ZSE,POINT:NAVAID:GEG:VORTAC,POINT:NAVAID:GEG:VORTAC:US:WA:SPOKANE
GEG,VOT,582,SPOKANE INTL,SPOKANE,WA,US,ANM,47.61363888,-117.52786111,109.6,,OPERATIONAL IFR,N,Y,,,POINT:NAVAID:GEG:VOT,POINT:NAVAID:GEG:VOT:US:WA:SPOKANE
GEP,VORTAC,583,GOPHER,MINNEAPOLIS,MN,US,AGL,45.14568488,-93.37318094,117.3,120X,OPERATIONAL RESTRICTED,Y,Y,ZMP,ZMP,POINT:NAVAID:GEP:VORTAC,POINT:NAVAID:GEP:VORTAC:US:MN:MINNEAPOLIS
GF,NDB,584,GANSE,GLENS FALLS,NY,US,AEA,43.25501361,-73.60511111,209,,OPERATIONAL IFR,Y,Y,,,POINT:NAVAID:GF:NDB,POINT:NAVAID:GF:NDB:US:NY:GLENS_FALLS
GF,NDB,585,HISER,GRAND FORKS,ND,US,AGL,47.84646475,-97.18151691,345,,OPERATIONAL IFR,Y,Y,,,POINT:NAVAID:GF:NDB,POINT:NAVAID:GF:NDB:US:ND:GRAND_FORKS
GFK,VOR/DME,586,GRAND FORKS,GRAND FORKS,ND,US,AGL,47.95483336,-97.18537044,114.3,90X,OPERATIONAL RESTRICTED,Y,Y,ZMP,ZMP,POINT:NAVAID:GFK:VOR/DME,POINT:NAVAID:GFK:VOR/DME:US:ND:GRAND_FORKS
GFS,VORTAC,587,GOFFS,GOFFS,CA,US,AWP,35.13114527,-115.17644027,114.4,91X,OPERATIONAL RESTRICTED,Y,Y,ZLA,ZLA,POINT:NAVAID:GFS:VORTAC,POINT:NAVAID:GFS:VORTAC:US:CA:GOFFS
GGF,NDB,588,GRANT,GRANT,NE,US,ACE,40.87094055,-101.73045,359,,OPERATIONAL IFR,Y,Y,ZDV,ZDV,POINT:NAVAID:GGF:NDB,POINT:NAVAID:GGF:NDB:US:NE:GRANT
GGG,VORTAC,589,GREGG COUNTY,LONGVIEW,TX,US,ASW,32.41775586,-94.7531945,112.9,76X,OPERATIONAL RESTRICTED,Y,Y,ZFW,ZFW,POINT:NAVAID:GGG:VORTAC,POINT:NAVAID:GGG:VORTAC:US:TX:LONGVIEW
GGT,TACAN,590,GEORGETOWN,GEORGETOWN,NY,US,AEA,42.78895583,-75.82674722,117.8,125X,OPERATIONAL IFR,Y,Y,ZBW,ZBW,POINT:NAVAID:GGT:TACAN,POINT:NAVAID:GGT:TACAN:US:NY:GEORGETOWN
GGW,VOR/DME,591,GLASGOW,GLASGOW,MT,US,ANM,48.21530436,-106.62541916,113.9,86X,OPERATIONAL RESTRICTED,Y,Y,ZLC,ZLC,POINT:NAVAID:GGW:VOR/DME,POINT:NAVAID:GGW:VOR/DME:US:MT:GLASGOW
GHJ,NDB,592,STONIA,GASTONIA,NC,US,ASO,35.19147088,-81.15785552,260,,OPERATIONAL IFR,Y,Y,ZTL,ZTL,POINT:NAVAID:GHJ:NDB,POINT:NAVAID:GHJ:NDB:US:NC:GASTONIA
GHM,DME,593,GRAHAM,CENTERVILLE,TN,US,ASO,35.83394197,-87.45180066,111.6,53X,OPERATIONAL IFR,Y,Y,ZME,ZME,POINT:NAVAID:GHM:DME,POINT:NAVAID:GHM:DME:US:TN:CENTERVILLE
